{"":{"iata":"","icao":"EDTF","name":"Freiburg","city":"Freiburg","country":"Germany","latitude":"48.022653","longitude":"7.832583","altitude":"799","timezone":"1","dst":"E"},"%u0":{"iata":"%u0","icao":"%u04","name":"Magas","city":"Nazran","country":"Russia","latitude":"43.323815","longitude":"45.017761","altitude":"1060","timezone":"4","dst":"N"},"04G":{"iata":"04G","icao":"\\N","name":"Lansdowne Airport","city":"Youngstown","country":"United States","latitude":"41.1304722","longitude":"-80.6195833","altitude":"1044","timezone":"-5","dst":"A"},"06A":{"iata":"06A","icao":"\\N","name":"Moton Field Municipal Airport","city":"Tuskegee","country":"United States","latitude":"32.4605722","longitude":"-85.6800278","altitude":"264","timezone":"-6","dst":"A"},"06C":{"iata":"06C","icao":"\\N","name":"Schaumburg Regional","city":"Schaumburg","country":"United States","latitude":"41.9893408","longitude":"-88.1012428","altitude":"801","timezone":"-6","dst":"A"},"06N":{"iata":"06N","icao":"\\N","name":"Randall Airport","city":"Middletown","country":"United States","latitude":"41.431912","longitude":"-74.3915611","altitude":"523","timezone":"-5","dst":"A"},"09J":{"iata":"09J","icao":"\\N","name":"Jekyll Island Airport","city":"Jekyll Island","country":"United States","latitude":"31.0744722","longitude":"-81.4277778","altitude":"11","timezone":"-5","dst":"A"},"0A9":{"iata":"0A9","icao":"\\N","name":"Elizabethton Municipal Airport","city":"Elizabethton","country":"United States","latitude":"36.3712222","longitude":"-82.1734167","altitude":"1593","timezone":"-5","dst":"A"},"0G6":{"iata":"0G6","icao":"\\N","name":"Williams County Airport","city":"Bryan","country":"United States","latitude":"41.4673056","longitude":"-84.5067778","altitude":"730","timezone":"-5","dst":"A"},"0G7":{"iata":"0G7","icao":"\\N","name":"Finger Lakes Regional Airport","city":"Seneca Falls","country":"United States","latitude":"42.8835647","longitude":"-76.7812318","altitude":"492","timezone":"-5","dst":"A"},"0P2":{"iata":"0P2","icao":"\\N","name":"Shoestring Aviation Airfield","city":"Stewartstown","country":"United States","latitude":"39.7948244","longitude":"-76.6471914","altitude":"1000","timezone":"-5","dst":"U"},"0S9":{"iata":"0S9","icao":"\\N","name":"Jefferson County Intl","city":"Port Townsend","country":"United States","latitude":"48.0538086","longitude":"-122.8106436","altitude":"108","timezone":"-8","dst":"A"},"0W3":{"iata":"0W3","icao":"\\N","name":"Harford County Airport","city":"Churchville","country":"United States","latitude":"39.5668378","longitude":"-76.2024028","altitude":"409","timezone":"-5","dst":"A"},"10C":{"iata":"10C","icao":"\\N","name":"Galt Field Airport","city":"Greenwood","country":"United States","latitude":"42.4028889","longitude":"-88.3751111","altitude":"875","timezone":"-6","dst":"U"},"17G":{"iata":"17G","icao":"\\N","name":"Port Bucyrus-Crawford County Airport","city":"Bucyrus","country":"United States","latitude":"40.7815556","longitude":"-82.9748056","altitude":"1003","timezone":"-5","dst":"A"},"19A":{"iata":"19A","icao":"\\N","name":"Jackson County Airport","city":"Jefferson","country":"United States","latitude":"34.1758638","longitude":"-83.5615972","altitude":"951","timezone":"-5","dst":"U"},"1A3":{"iata":"1A3","icao":"\\N","name":"Martin Campbell Field Airport","city":"Copperhead","country":"United States","latitude":"35.0158056","longitude":"-84.3468333","altitude":"1789","timezone":"-5","dst":"A"},"1B9":{"iata":"1B9","icao":"\\N","name":"Mansfield Municipal","city":"Mansfield","country":"United States","latitude":"42.0001331","longitude":"-71.1967714","altitude":"122","timezone":"-5","dst":"A"},"1C9":{"iata":"1C9","icao":"\\N","name":"Frazier Lake Airpark","city":"Hollister","country":"United States","latitude":"54.013333333333335","longitude":"-124.76833333333333","altitude":"152","timezone":"-8","dst":"A"},"1CS":{"iata":"1CS","icao":"\\N","name":"Clow International Airport","city":"Bolingbrook","country":"United States","latitude":"41.6959744","longitude":"-88.1292306","altitude":"670","timezone":"-6","dst":"U"},"1G3":{"iata":"1G3","icao":"\\N","name":"Kent State Airport","city":"Kent","country":"United States","latitude":"41.1513889","longitude":"-81.4151111","altitude":"1134","timezone":"-5","dst":"A"},"1G4":{"iata":"1G4","icao":"\\N","name":"Grand Canyon West Airport","city":"Peach Springs","country":"United States","latitude":"35.899904","longitude":"-113.815674","altitude":"4813","timezone":"-7","dst":"A"},"1H2":{"iata":"1H2","icao":"KEFH","name":"Effingham Memorial Airport","city":"Effingham","country":"United States","latitude":"39.07","longitude":"-88.534","altitude":"585","timezone":"-6","dst":"A"},"1OH":{"iata":"1OH","icao":"\\N","name":"Fortman Airport","city":"St. Marys","country":"United States","latitude":"40.5553253","longitude":"-84.3866186","altitude":"885","timezone":"-5","dst":"U"},"1RL":{"iata":"1RL","icao":"K1RL","name":"Point Roberts Airpark","city":"Point Roberts","country":"United States","latitude":"48.9797222","longitude":"-123.0788889","altitude":"10","timezone":"-8","dst":"A"},"23M":{"iata":"23M","icao":"K23M","name":"Clarke CO","city":"Quitman","country":"United States","latitude":"32.0517","longitude":"-88.4434","altitude":"320","timezone":"-6","dst":"A"},"24C":{"iata":"24C","icao":"\\N","name":"Lowell City Airport","city":"Lowell","country":"United States","latitude":"42.95392","longitude":"-85.3439058","altitude":"681","timezone":"-5","dst":"A"},"24J":{"iata":"24J","icao":"\\N","name":"Suwannee County Airport","city":"Live Oak","country":"United States","latitude":"30.300125","longitude":"-83.0246944","altitude":"104","timezone":"-5","dst":"A"},"25D":{"iata":"25D","icao":"\\N","name":"Forest Lake Airport","city":"Forest Lake","country":"United States","latitude":"45.2477456","longitude":"-92.9943853","altitude":"925","timezone":"-6","dst":"A"},"29D":{"iata":"29D","icao":"\\N","name":"Grove City Airport","city":"Grove City","country":"United States","latitude":"41.1460278","longitude":"-80.16775","altitude":"1371","timezone":"-5","dst":"A"},"2A0":{"iata":"2A0","icao":"\\N","name":"Mark Anton Airport","city":"Dayton","country":"United States","latitude":"35.48625","longitude":"-84.9310833","altitude":"718","timezone":"-5","dst":"A"},"2B2":{"iata":"2B2","icao":"\\N","name":"Plum Island Airport","city":"Newburyport","country":"United States","latitude":"42.7953611","longitude":"-70.8394444","altitude":"11","timezone":"-5","dst":"A"},"2G2":{"iata":"2G2","icao":"\\N","name":"Jefferson County Airpark","city":"Steubenville","country":"United States","latitude":"40.3602179","longitude":"-80.7008742","altitude":"1196","timezone":"-5","dst":"A"},"2G9":{"iata":"2G9","icao":"\\N","name":"Somerset County Airport","city":"Somerset","country":"United States","latitude":"40.0388708","longitude":"-79.0149951","altitude":"2275","timezone":"-5","dst":"A"},"2H0":{"iata":"2H0","icao":"K2H0","name":"Shelby County Airport","city":"Shelbyville","country":"United States","latitude":"39.410556","longitude":"-88.845556","altitude":"550","timezone":"-6","dst":"A"},"2J9":{"iata":"2J9","icao":"\\N","name":"Quincy Municipal Airport","city":"Quincy","country":"United States","latitude":"30.5978708","longitude":"-84.557425","altitude":"225","timezone":"-5","dst":"A"},"369":{"iata":"369","icao":"\\N","name":"Atmautluak Airport","city":"Atmautluak","country":"United States","latitude":"60.866667","longitude":"-162.273056","altitude":"18","timezone":"-9","dst":"A"},"36U":{"iata":"36U","icao":"\\N","name":"Heber City Municipal Airport","city":"Heber","country":"United States","latitude":"40.4818056","longitude":"-111.4288056","altitude":"5637","timezone":"-7","dst":"A"},"38W":{"iata":"38W","icao":"\\N","name":"Lynden Airport","city":"Lynden","country":"United States","latitude":"48.9558961","longitude":"-122.4581183","altitude":"106","timezone":"-8","dst":"A"},"3D2":{"iata":"3D2","icao":"\\N","name":"Ephraim-Gibraltar Airport","city":"Ephraim","country":"United States","latitude":"45.1354167","longitude":"-87.1879444","altitude":"773","timezone":"-6","dst":"A"},"3G3":{"iata":"3G3","icao":"\\N","name":"Wadsworth Municipal","city":"Wadsworth","country":"United States","latitude":"41.0031572","longitude":"-81.7564401","altitude":"974","timezone":"-5","dst":"A"},"3G4":{"iata":"3G4","icao":"\\N","name":"Ashland County Airport","city":"Ashland","country":"United States","latitude":"40.9029722","longitude":"-82.2556389","altitude":"1206","timezone":"-5","dst":"A"},"3J1":{"iata":"3J1","icao":"\\N","name":"Ridgeland Airport","city":"Ridgeland","country":"United States","latitude":"32.4934167","longitude":"-80.99175","altitude":"79","timezone":"-5","dst":"A"},"3W2":{"iata":"3W2","icao":"\\N","name":"Put-in-Bay Airport","city":"Put-in-Bay","country":"United States","latitude":"41.3521","longitude":"-82.497","altitude":"595","timezone":"-5","dst":"A"},"40J":{"iata":"40J","icao":"\\N","name":"Perry-Foley Airport","city":"Perry","country":"United States","latitude":"30.0692778","longitude":"-83.5805833","altitude":"44","timezone":"-5","dst":"A"},"41N":{"iata":"41N","icao":"\\N","name":"Braceville Airport","city":"Braceville","country":"United States","latitude":"41.2111675","longitude":"-80.9692572","altitude":"900","timezone":"-5","dst":"A"},"47A":{"iata":"47A","icao":"\\N","name":"Cherokee County Airport","city":"Canton","country":"United States","latitude":"34.3122175","longitude":"-84.4221556","altitude":"1219","timezone":"-5","dst":"A"},"49A":{"iata":"49A","icao":"\\N","name":"Gilmer County Airport","city":"Ellijay","country":"United States","latitude":"34.6282222","longitude":"-84.5265833","altitude":"1486","timezone":"-5","dst":"A"},"49X":{"iata":"49X","icao":"\\N","name":"Chemehuevi Valley","city":"Chemehuevi Valley","country":"United States","latitude":"34.528889","longitude":"-114.431971","altitude":"638","timezone":"-8","dst":"A"},"4A4":{"iata":"4A4","icao":"\\N","name":"Polk County Airport - Cornelius Moore Field","city":"Cedartown","country":"United States","latitude":"34.0186944","longitude":"-85.1464722","altitude":"974","timezone":"-5","dst":"A"},"4A7":{"iata":"4A7","icao":"K4A7","name":"Clayton County Tara Field","city":"Hampton","country":"United States","latitude":"33.389099","longitude":"-84.332397","altitude":"874","timezone":"-5","dst":"A"},"4A9":{"iata":"4A9","icao":"\\N","name":"Isbell Field Airport","city":"Fort Payne","country":"United States","latitude":"34.4736944","longitude":"-85.7213889","altitude":"877","timezone":"-6","dst":"A"},"4B8":{"iata":"4B8","icao":"\\N","name":"Robertson Field","city":"Plainville","country":"United States","latitude":"41.6893333","longitude":"-72.8646944","altitude":"202","timezone":"-5","dst":"A"},"4G0":{"iata":"4G0","icao":"\\N","name":"Pittsburgh-Monroeville Airport","city":"Monroeville","country":"United States","latitude":"40.4526389","longitude":"-79.7749167","altitude":"1187","timezone":"-5","dst":"A"},"4G2":{"iata":"4G2","icao":"\\N","name":"Hamburg Inc Airport","city":"Hamburg","country":"United States","latitude":"42.7008925","longitude":"-78.9147569","altitude":"751","timezone":"-5","dst":"A"},"4G4":{"iata":"4G4","icao":"\\N","name":"Youngstown Elser Metro Airport","city":"Youngstown","country":"United States","latitude":"40.9617953","longitude":"-80.6773264","altitude":"1070","timezone":"-5","dst":"A"},"4I7":{"iata":"4I7","icao":"\\N","name":"Putnam County Airport","city":"Greencastle","country":"United States","latitude":"39.6335556","longitude":"-86.8138056","altitude":"842","timezone":"-5","dst":"U"},"4U9":{"iata":"4U9","icao":"K4U9","name":"Dell Flight Strip","city":"Dell","country":"United States","latitude":"44.7357483","longitude":"-112.7200133","altitude":"6007","timezone":"-7","dst":"A"},"52A":{"iata":"52A","icao":"K52A","name":"Madison GA Municipal Airport","city":"Madison","country":"United States","latitude":"33.612125","longitude":"-83.4604444","altitude":"694","timezone":"-5","dst":"A"},"54J":{"iata":"54J","icao":"\\N","name":"DeFuniak Springs Airport","city":"DeFuniak Springs","country":"United States","latitude":"30.7311111","longitude":"-86.1537778","altitude":"289","timezone":"-6","dst":"A"},"55J":{"iata":"55J","icao":"\\N","name":"Fernandina Beach Municipal Airport","city":"Fernandina Beach","country":"United States","latitude":"30.6118333","longitude":"-81.4611944","altitude":"16","timezone":"-5","dst":"A"},"55S":{"iata":"55S","icao":"K55S","name":"Packwood","city":"Packwood","country":"United States","latitude":"46.3625","longitude":"-121.4067","altitude":"1057","timezone":"-8","dst":"A"},"57C":{"iata":"57C","icao":"K57C","name":"East Troy Municipal Airport","city":"East Troy","country":"United States","latitude":"42.7971667","longitude":"-88.3726111","altitude":"860","timezone":"-6","dst":"A"},"5B2":{"iata":"5B2","icao":"K5B2","name":"Saratoga County Airport","city":"Ballston Spa","country":"United States","latitude":"43.050722","longitude":"-73.861638","altitude":"433","timezone":"-5","dst":"A"},"60J":{"iata":"60J","icao":"\\N","name":"Ocean Isle Beach Airport","city":"Ocean Isle Beach","country":"United States","latitude":"33.9085056","longitude":"-78.4366722","altitude":"32","timezone":"-5","dst":"U"},"6A2":{"iata":"6A2","icao":"\\N","name":"Griffin-Spalding County Airport","city":"Griffin","country":"United States","latitude":"33.2269722","longitude":"-84.2749444","altitude":"958","timezone":"-5","dst":"A"},"6J4":{"iata":"6J4","icao":"K6J4","name":"Saluda County","city":"Saluda","country":"United States","latitude":"33.5561","longitude":"-81.4768","altitude":"539","timezone":"-5","dst":"A"},"6K8":{"iata":"6K8","icao":"PFTO","name":"Tok Junction Airport","city":"Tok","country":"United States","latitude":"63.329444","longitude":"-142.953611","altitude":"1639","timezone":"-9","dst":"A"},"6S0":{"iata":"6S0","icao":"K6S0","name":"Big Timber Airport","city":"Big Timber","country":"United States","latitude":"45.8063889","longitude":"-109.9811111","altitude":"4492","timezone":"-7","dst":"A"},"6S2":{"iata":"6S2","icao":"\\N","name":"Florence","city":"Florence","country":"United States","latitude":"43.9828168","longitude":"-124.1113687","altitude":"51","timezone":"-8","dst":"A"},"6Y8":{"iata":"6Y8","icao":"\\N","name":"Welke Airport","city":"Beaver Island","country":"United States","latitude":"45.721111","longitude":"-85.520278","altitude":"664","timezone":"-5","dst":"A"},"70J":{"iata":"70J","icao":"\\N","name":"Cairo-Grady County Airport","city":"Cairo","country":"United States","latitude":"30.8879767","longitude":"-84.1547353","altitude":"265","timezone":"-5","dst":"A"},"70N":{"iata":"70N","icao":"\\N","name":"Spring Hill Airport","city":"Sterling","country":"United States","latitude":"41.3473569","longitude":"-75.4158972","altitude":"1729","timezone":"-5","dst":"A"},"7A4":{"iata":"7A4","icao":"\\N","name":"Foster Field","city":"Apple River","country":"United States","latitude":"42.4664444","longitude":"-90.1693889","altitude":"990","timezone":"-6","dst":"A"},"7D9":{"iata":"7D9","icao":"\\N","name":"Germack Airport","city":"Geneva","country":"United States","latitude":"41.7778322","longitude":"-80.9039797","altitude":"820","timezone":"-5","dst":"A"},"7N7":{"iata":"7N7","icao":"\\N","name":"Spitfire Aerodrome","city":"Pedricktown","country":"United States","latitude":"39.7355633","longitude":"-75.3977211","altitude":"40","timezone":"-5","dst":"A"},"8M8":{"iata":"8M8","icao":"\\N","name":"Garland Airport","city":"Lewiston","country":"United States","latitude":"44.8065278","longitude":"-84.2761944","altitude":"1218","timezone":"-5","dst":"A"},"93C":{"iata":"93C","icao":"\\N","name":"Richland Airport","city":"Richland Center","country":"United States","latitude":"43.2833575","longitude":"-90.2982819","altitude":"742","timezone":"-6","dst":"A"},"99N":{"iata":"99N","icao":"\\N","name":"Bamberg County Airport","city":"Bamberg","country":"United States","latitude":"33.3045278","longitude":"-81.1084167","altitude":"231","timezone":"-5","dst":"A"},"9A1":{"iata":"9A1","icao":"\\N","name":"Covington Municipal Airport","city":"Covington","country":"United States","latitude":"33.6323083","longitude":"-83.8474472","altitude":"809","timezone":"-5","dst":"A"},"9A5":{"iata":"9A5","icao":"\\N","name":"Barwick Lafayette Airport","city":"LaFayette","country":"United States","latitude":"34.6884792","longitude":"-85.2903319","altitude":"777","timezone":"-5","dst":"A"},"9G1":{"iata":"9G1","icao":"\\N","name":"Rock Airport","city":"Tarentum","country":"United States","latitude":"40.6035463","longitude":"-79.8261189","altitude":"1063","timezone":"-5","dst":"A"},"A39":{"iata":"A39","icao":"KA39","name":"Phoenix Regional Airport","city":"Phoenix","country":"United States","latitude":"32.99169921875","longitude":"-111.920997619629","altitude":"1300","timezone":"-7","dst":"A"},"A50":{"iata":"A50","icao":"KA50","name":"Colorado Springs East","city":"Ellicott","country":"United States","latitude":"38.87","longitude":"-104.41","altitude":"6145","timezone":"-7","dst":"A"},"AAA":{"iata":"AAA","icao":"NTGA","name":"Anaa","city":"Anaa","country":"French Polynesia","latitude":"-17.352606","longitude":"-145.509956","altitude":"10","timezone":"-10","dst":"U"},"AAC":{"iata":"AAC","icao":"HEAR","name":"El Arish International Airport","city":"El Arish","country":"Egypt","latitude":"31.073333","longitude":"33.835833","altitude":"121","timezone":"2","dst":"U"},"AAE":{"iata":"AAE","icao":"DABB","name":"Annaba","city":"Annaba","country":"Algeria","latitude":"36.822225","longitude":"7.809167","altitude":"16","timezone":"1","dst":"N"},"AAF":{"iata":"AAF","icao":"KAAF","name":"Apalachicola Regional Airport","city":"Apalachicola","country":"United States","latitude":"29.7276066","longitude":"-85.0274416","altitude":"20","timezone":"-5","dst":"A"},"AAH":{"iata":"AAH","icao":"EDKA","name":"Flugplatz Merzbrueck","city":"Aachen","country":"Germany","latitude":"50.823194","longitude":"6.186389","altitude":"570","timezone":"1","dst":"E"},"AAJ":{"iata":"AAJ","icao":"\\N","name":"Cayana Airstrip","city":"Cayana","country":"Suriname","latitude":"3.898611","longitude":"-55.577778","altitude":"50","timezone":"-3","dst":"S"},"AAK":{"iata":"AAK","icao":"NGUK","name":"Aranuka Airport","city":"Buariki","country":"Kiribati","latitude":"0.185278","longitude":"173.636389","altitude":"6","timezone":"10","dst":"U"},"AAL":{"iata":"AAL","icao":"EKYT","name":"Aalborg","city":"Aalborg","country":"Denmark","latitude":"57.092789","longitude":"9.849164","altitude":"10","timezone":"1","dst":"E"},"AAM":{"iata":"AAM","icao":"FAMD","name":"Malamala Airport","city":"Malamala","country":"South Africa","latitude":"-24.818111","longitude":"31.544584","altitude":"1124","timezone":"2","dst":"U"},"AAN":{"iata":"AAN","icao":"OMAL","name":"Al Ain International Airport","city":"Al Ain","country":"United Arab Emirates","latitude":"24.261667","longitude":"55.609167","altitude":"869","timezone":"4","dst":"U"},"AAO":{"iata":"AAO","icao":"SVAN","name":"Anaco","city":"Anaco","country":"Venezuela","latitude":"9.430225","longitude":"-64.470725","altitude":"721","timezone":"-4.5","dst":"U"},"AAP":{"iata":"AAP","icao":"KAAP","name":"Andrau Airport","city":"Houston","country":"United States","latitude":"29.43","longitude":"-95.35","altitude":"80","timezone":"-6","dst":"A"},"AAQ":{"iata":"AAQ","icao":"URKA","name":"Vityazevo","city":"Anapa","country":"Russia","latitude":"45.002097","longitude":"37.347272","altitude":"174","timezone":"4","dst":"N"},"AAR":{"iata":"AAR","icao":"EKAH","name":"Aarhus","city":"Aarhus","country":"Denmark","latitude":"56.300017","longitude":"10.619008","altitude":"82","timezone":"1","dst":"E"},"AAT":{"iata":"AAT","icao":"ZWAT","name":"Altay Airport","city":"Altay","country":"China","latitude":"47.866667","longitude":"88.116667","altitude":"2491","timezone":"8","dst":"U"},"AAU":{"iata":"AAU","icao":"\\N","name":"Asau Airport","city":"Savai\\\\'i","country":"Samoa","latitude":"-13.505","longitude":"-172.627778","altitude":"6","timezone":"13","dst":"U"},"AAX":{"iata":"AAX","icao":"SBAX","name":"Araxa Airport","city":"Araxa","country":"Brazil","latitude":"-19.563056","longitude":"-46.960278","altitude":"3276","timezone":"-3","dst":"S"},"AAY":{"iata":"AAY","icao":"OYGD","name":"Al Ghaidah Intl","city":"Al Ghaidah Intl","country":"Yemen","latitude":"16.191667","longitude":"52.175","altitude":"134","timezone":"3","dst":"U"},"AAZ":{"iata":"AAZ","icao":"MGQZ","name":"Quezaltenango Airport","city":"Quezaltenango","country":"Guatemala","latitude":"14.8656","longitude":"-91.502","altitude":"7779","timezone":"-6","dst":"U"},"ABA":{"iata":"ABA","icao":"UNAA","name":"Abakan","city":"Abakan","country":"Russia","latitude":"53.74","longitude":"91.385","altitude":"831","timezone":"8","dst":"N"},"ABD":{"iata":"ABD","icao":"OIAA","name":"Abadan","city":"Abadan","country":"Iran","latitude":"30.371111","longitude":"48.228333","altitude":"19","timezone":"3.5","dst":"E"},"ABE":{"iata":"ABE","icao":"KABE","name":"Lehigh Valley Intl","city":"Allentown","country":"United States","latitude":"40.652083","longitude":"-75.440806","altitude":"393","timezone":"-5","dst":"A"},"ABF":{"iata":"ABF","icao":"NGAB","name":"Abaiang Atoll Airport","city":"Abaiang Atoll","country":"Kiribati","latitude":"1.8","longitude":"173.04","altitude":"1","timezone":"12","dst":"U"},"ABI":{"iata":"ABI","icao":"KABI","name":"Abilene Rgnl","city":"Abilene","country":"United States","latitude":"32.411319","longitude":"-99.681897","altitude":"1791","timezone":"-6","dst":"A"},"ABJ":{"iata":"ABJ","icao":"DIAP","name":"Abidjan Felix Houphouet Boigny Intl","city":"Abidjan","country":"Cote d'Ivoire","latitude":"5.261386","longitude":"-3.926294","altitude":"21","timezone":"0","dst":"N"},"ABK":{"iata":"ABK","icao":"HAKD","name":"Kabri Dehar Airport","city":"Kabri Dehar","country":"Ethiopia","latitude":"6.734","longitude":"44.253","altitude":"1800","timezone":"3","dst":"U"},"ABL":{"iata":"ABL","icao":"PAFM","name":"Ambler Airport","city":"Ambler","country":"United States","latitude":"67.106389","longitude":"-157.8575","altitude":"334","timezone":"-9","dst":"A"},"ABM":{"iata":"ABM","icao":"YBAM","name":"Bamaga Injinoo","city":"Amberley","country":"Australia","latitude":"-10.950833","longitude":"142.459444","altitude":"34","timezone":"10","dst":"O"},"ABN":{"iata":"ABN","icao":"SMBN","name":"Albina Airstrip","city":"Albina","country":"Suriname","latitude":"5.516667","longitude":"-54.05","altitude":"10","timezone":"-3","dst":"U"},"ABQ":{"iata":"ABQ","icao":"KABQ","name":"Albuquerque International Sunport","city":"Albuquerque","country":"United States","latitude":"35.0402222","longitude":"-106.6091944","altitude":"5355","timezone":"-7","dst":"A"},"ABR":{"iata":"ABR","icao":"KABR","name":"Aberdeen Regional Airport","city":"Aberdeen","country":"United States","latitude":"45.4491","longitude":"-98.4218","altitude":"1302","timezone":"-6","dst":"A"},"ABS":{"iata":"ABS","icao":"HEBL","name":"Abu Simbel","city":"Abu Simbel","country":"Egypt","latitude":"22.375953","longitude":"31.611722","altitude":"616","timezone":"2","dst":"U"},"ABT":{"iata":"ABT","icao":"OEBA","name":"Al Baha","city":"El-baha","country":"Saudi Arabia","latitude":"20.296139","longitude":"41.634277","altitude":"5486","timezone":"3","dst":"U"},"ABV":{"iata":"ABV","icao":"DNAA","name":"Nnamdi Azikiwe Intl","city":"Abuja","country":"Nigeria","latitude":"9.006792","longitude":"7.263172","altitude":"1123","timezone":"1","dst":"N"},"ABX":{"iata":"ABX","icao":"YMAY","name":"Albury","city":"Albury","country":"Australia","latitude":"-36.067778","longitude":"146.958056","altitude":"539","timezone":"10","dst":"O"},"ABY":{"iata":"ABY","icao":"KABY","name":"Southwest Georgia Regional Airport","city":"Albany","country":"United States","latitude":"31.5355","longitude":"-84.1945","altitude":"197","timezone":"-5","dst":"A"},"ABZ":{"iata":"ABZ","icao":"EGPD","name":"Dyce","city":"Aberdeen","country":"United Kingdom","latitude":"57.201944","longitude":"-2.197778","altitude":"215","timezone":"0","dst":"E"},"ACA":{"iata":"ACA","icao":"MMAA","name":"General Juan N Alvarez Intl","city":"Acapulco","country":"Mexico","latitude":"16.757061","longitude":"-99.753953","altitude":"16","timezone":"-6","dst":"S"},"ACC":{"iata":"ACC","icao":"DGAA","name":"Kotoka Intl","city":"Accra","country":"Ghana","latitude":"5.605186","longitude":"-0.166786","altitude":"205","timezone":"0","dst":"N"},"ACD":{"iata":"ACD","icao":"SKAD","name":"Alcides Fernandez Airport","city":"Acandi","country":"Colombia","latitude":"8.516667","longitude":"-77.3","altitude":"50","timezone":"-5","dst":"U"},"ACE":{"iata":"ACE","icao":"GCRR","name":"Lanzarote","city":"Las Palmas","country":"Spain","latitude":"28.945464","longitude":"-13.605225","altitude":"47","timezone":"0","dst":"E"},"ACH":{"iata":"ACH","icao":"LSZR","name":"St Gallen Altenrhein","city":"Altenrhein","country":"Switzerland","latitude":"47.485033","longitude":"9.560775","altitude":"1306","timezone":"1","dst":"E"},"ACI":{"iata":"ACI","icao":"EGJA","name":"Alderney","city":"Alderney","country":"Guernsey","latitude":"49.706111","longitude":"-2.214722","altitude":"290","timezone":"0","dst":"E"},"ACJ":{"iata":"ACJ","icao":"KACJ","name":"Jimmy Carter Regional","city":"Americus","country":"United States","latitude":"32.0665","longitude":"-84.1133","altitude":"468","timezone":"-5","dst":"A"},"ACK":{"iata":"ACK","icao":"KACK","name":"Nantucket Mem","city":"Nantucket","country":"United States","latitude":"41.253053","longitude":"-70.060181","altitude":"48","timezone":"-5","dst":"A"},"ACP":{"iata":"ACP","icao":"OITM","name":"Sahand Airport","city":"Maragheh","country":"Iran","latitude":"37.348017","longitude":"46.127903","altitude":"4396","timezone":"3.5","dst":"E"},"ACR":{"iata":"ACR","icao":"SKAC","name":"Araracuara Airport","city":"Araracuara","country":"Colombia","latitude":"-0.58","longitude":"-72.41","altitude":"1250","timezone":"-5","dst":"U"},"ACT":{"iata":"ACT","icao":"KACT","name":"Waco Rgnl","city":"Waco","country":"United States","latitude":"31.611289","longitude":"-97.230519","altitude":"516","timezone":"-6","dst":"A"},"ACU":{"iata":"ACU","icao":"\\N","name":"Achutupo Airport","city":"Achutupo","country":"Panama","latitude":"9.2","longitude":"-77.98","altitude":"0","timezone":"-5","dst":"U"},"ACV":{"iata":"ACV","icao":"KACV","name":"Arcata","city":"Arcata CA","country":"United States","latitude":"40.978111","longitude":"-124.108611","altitude":"221","timezone":"-8","dst":"A"},"ACX":{"iata":"ACX","icao":"\\N","name":"Xingyi Airport","city":"Xingyi","country":"China","latitude":"25.0882","longitude":"104.9587","altitude":"500","timezone":"8","dst":"U"},"ACY":{"iata":"ACY","icao":"KACY","name":"Atlantic City Intl","city":"Atlantic City","country":"United States","latitude":"39.457583","longitude":"-74.577167","altitude":"75","timezone":"-5","dst":"A"},"ADA":{"iata":"ADA","icao":"LTAF","name":"Adana","city":"Adana","country":"Turkey","latitude":"36.982166","longitude":"35.280388","altitude":"65","timezone":"2","dst":"E"},"ADB":{"iata":"ADB","icao":"LTBJ","name":"Adnan Menderes","city":"Izmir","country":"Turkey","latitude":"38.292392","longitude":"27.156953","altitude":"412","timezone":"2","dst":"E"},"ADD":{"iata":"ADD","icao":"HAAB","name":"Bole Intl","city":"Addis Ababa","country":"Ethiopia","latitude":"8.977889","longitude":"38.799319","altitude":"7656","timezone":"3","dst":"U"},"ADE":{"iata":"ADE","icao":"OYAA","name":"Aden Intl","city":"Aden","country":"Yemen","latitude":"12.829542","longitude":"45.028792","altitude":"7","timezone":"3","dst":"U"},"ADF":{"iata":"ADF","icao":"LTCP","name":"Adiyaman Airport","city":"Adiyaman","country":"Turkey","latitude":"37.7314","longitude":"38.4689","altitude":"2216","timezone":"2","dst":"E"},"ADH":{"iata":"ADH","icao":"UEEA","name":"Aldan Airport","city":"Aldan","country":"Russia","latitude":"58.603056","longitude":"125.407222","altitude":"2241","timezone":"10","dst":"E"},"ADJ":{"iata":"ADJ","icao":"OJAM","name":"Marka Intl","city":"Amman","country":"Jordan","latitude":"31.972703","longitude":"35.991569","altitude":"2555","timezone":"2","dst":"E"},"ADK":{"iata":"ADK","icao":"PADK","name":"Adak Airport","city":"Adak Island","country":"United States","latitude":"51.878","longitude":"-176.646","altitude":"18","timezone":"-9","dst":"A"},"ADL":{"iata":"ADL","icao":"YPAD","name":"Adelaide Intl","city":"Adelaide","country":"Australia","latitude":"-34.945","longitude":"138.530556","altitude":"20","timezone":"9.5","dst":"O"},"ADM":{"iata":"ADM","icao":"KADM","name":"Ardmore Muni","city":"Ardmore","country":"United States","latitude":"34.300833","longitude":"-97.008889","altitude":"762","timezone":"-6","dst":"A"},"ADQ":{"iata":"ADQ","icao":"PADQ","name":"Kodiak","city":"Kodiak","country":"United States","latitude":"57.749967","longitude":"-152.493856","altitude":"78","timezone":"-9","dst":"A"},"ADS":{"iata":"ADS","icao":"KADS","name":"Addison","city":"Addison","country":"United States","latitude":"32.9685594","longitude":"-96.8364478","altitude":"644","timezone":"-6","dst":"A"},"ADU":{"iata":"ADU","icao":"OITL","name":"Ardabil Airport","city":"Ardabil","country":"Iran","latitude":"38.325678","longitude":"48.424356","altitude":"4315","timezone":"3.5","dst":"E"},"ADW":{"iata":"ADW","icao":"KADW","name":"Andrews Afb","city":"Camp Springs","country":"United States","latitude":"38.810806","longitude":"-76.867028","altitude":"280","timezone":"-5","dst":"A"},"ADX":{"iata":"ADX","icao":"EGQL","name":"Leuchars","city":"Leuchars","country":"United Kingdom","latitude":"56.372889","longitude":"-2.868444","altitude":"38","timezone":"0","dst":"E"},"ADY":{"iata":"ADY","icao":"FAAL","name":"Alldays Airport","city":"Alldays","country":"South Africa","latitude":"-22.678889","longitude":"29.055278","altitude":"2676","timezone":"2","dst":"U"},"ADZ":{"iata":"ADZ","icao":"SKSP","name":"Gustavo Rojas Pinilla","city":"San Andres Island","country":"Colombia","latitude":"12.583594","longitude":"-81.711192","altitude":"19","timezone":"-5","dst":"U"},"AEA":{"iata":"AEA","icao":"NGTB","name":"Abemama Atoll Airport","city":"Abemama","country":"Kiribati","latitude":"0.490833","longitude":"173.828611","altitude":"8","timezone":"12","dst":"U"},"AEB":{"iata":"AEB","icao":"\\N","name":"Tianyang","city":"Baise","country":"China","latitude":"23.72","longitude":"106.96","altitude":"485","timezone":"8","dst":"N"},"AEH":{"iata":"AEH","icao":"FTTC","name":"Abeche","city":"Abeche","country":"Chad","latitude":"13.847","longitude":"20.844333","altitude":"1788","timezone":"1","dst":"N"},"AEP":{"iata":"AEP","icao":"SABE","name":"Aeroparque Jorge Newbery","city":"Buenos Aires","country":"Argentina","latitude":"-34.559175","longitude":"-58.415606","altitude":"18","timezone":"-3","dst":"N"},"AER":{"iata":"AER","icao":"URSS","name":"Sochi","city":"Sochi","country":"Russia","latitude":"43.449928","longitude":"39.956589","altitude":"89","timezone":"4","dst":"N"},"AES":{"iata":"AES","icao":"ENAL","name":"Vigra","city":"Alesund","country":"Norway","latitude":"62.560372","longitude":"6.110164","altitude":"69","timezone":"1","dst":"E"},"AET":{"iata":"AET","icao":"PFAL","name":"Allakaket Airport","city":"Allakaket","country":"United States","latitude":"66.5519","longitude":"-152.6222","altitude":"441","timezone":"-9","dst":"A"},"AEX":{"iata":"AEX","icao":"KAEX","name":"Alexandria Intl","city":"Alexandria","country":"United States","latitude":"31.3274","longitude":"-92.549833","altitude":"89","timezone":"-6","dst":"A"},"AEY":{"iata":"AEY","icao":"BIAR","name":"Akureyri","city":"Akureyri","country":"Iceland","latitude":"65.659994","longitude":"-18.072703","altitude":"6","timezone":"0","dst":"N"},"AFA":{"iata":"AFA","icao":"SAMR","name":"San Rafael","city":"San Rafael","country":"Argentina","latitude":"-34.588314","longitude":"-68.403854","altitude":"2470","timezone":"-3","dst":"N"},"AFE":{"iata":"AFE","icao":"PAFE","name":"Kake Airport","city":"Kake","country":"United States","latitude":"56.961389","longitude":"-133.910278","altitude":"172","timezone":"-9","dst":"A"},"AFL":{"iata":"AFL","icao":"SBAT","name":"Alta Floresta","city":"Alta Floresta","country":"Brazil","latitude":"-9.866092","longitude":"-56.106206","altitude":"947","timezone":"-4","dst":"S"},"AFS":{"iata":"AFS","icao":"UTSN","name":"Sugraly Airport","city":"Zarafshan","country":"Uzbekistan","latitude":"41.6139","longitude":"64.2332","altitude":"1396","timezone":"5","dst":"U"},"AFT":{"iata":"AFT","icao":"AGAF","name":"Afutara Airport","city":"Afutara","country":"Solomon Islands","latitude":"-9.183056","longitude":"160.949722","altitude":"5","timezone":"11","dst":"U"},"AFW":{"iata":"AFW","icao":"KAFW","name":"Fort Worth Alliance Airport","city":"Fort Worth","country":"United States","latitude":"32.987778","longitude":"-97.318889","altitude":"722","timezone":"-6","dst":"A"},"AFY":{"iata":"AFY","icao":"LTAH","name":"Afyon","city":"Afyon","country":"Turkey","latitude":"38.726425","longitude":"30.601114","altitude":"3310","timezone":"2","dst":"E"},"AFZ":{"iata":"AFZ","icao":"OIMS","name":"Sabzevar National Airport","city":"Sabzevar","country":"Iran","latitude":"36.168083","longitude":"57.595183","altitude":"3010","timezone":"3.5","dst":"E"},"AGA":{"iata":"AGA","icao":"GMAA","name":"Inezgane","city":"Agadir","country":"Morocco","latitude":"30.381353","longitude":"-9.546311","altitude":"89","timezone":"0","dst":"N"},"AGB":{"iata":"AGB","icao":"EDMA","name":"Augsburg","city":"Augsburg","country":"Germany","latitude":"48.425158","longitude":"10.931764","altitude":"1515","timezone":"1","dst":"E"},"AGC":{"iata":"AGC","icao":"KAGC","name":"Allegheny County Airport","city":"Pittsburgh","country":"United States","latitude":"40.3544","longitude":"-79.9302","altitude":"1252","timezone":"-5","dst":"A"},"AGE":{"iata":"AGE","icao":"EDWG","name":"Wangerooge Airport","city":"Wangerooge","country":"Germany","latitude":"53.7828","longitude":"7.91389","altitude":"7","timezone":"1","dst":"E"},"AGF":{"iata":"AGF","icao":"LFBA","name":"La Garenne","city":"Agen","country":"France","latitude":"44.174721","longitude":"0.590556","altitude":"204","timezone":"1","dst":"E"},"AGH":{"iata":"AGH","icao":"ESTA","name":"├ängelholm-Helsingborg Airport","city":"├ängelholm","country":"Sweden","latitude":"56.2961","longitude":"12.8471","altitude":"68","timezone":"1","dst":"E"},"AGI":{"iata":"AGI","icao":"SMWA","name":"Wageningen Airstrip","city":"Wageningen","country":"Suriname","latitude":"5.76667","longitude":"-56.63333","altitude":"10","timezone":"-3","dst":"U"},"AGJ":{"iata":"AGJ","icao":"RORA","name":"Aguni Airport","city":"Aguni","country":"Japan","latitude":"26.592778","longitude":"127.240278","altitude":"38","timezone":"9","dst":"U"},"AGL":{"iata":"AGL","icao":"\\N","name":"Wanigela Airport","city":"Wanigela","country":"Papua New Guinea","latitude":"-9.333","longitude":"149.15","altitude":"0","timezone":"10","dst":"U"},"AGM":{"iata":"AGM","icao":"BGAM","name":"Tasiilaq","city":"Angmagssalik","country":"Greenland","latitude":"65.612222","longitude":"-37.618333","altitude":"24","timezone":"-3","dst":"U"},"AGN":{"iata":"AGN","icao":"PAGN","name":"Angoon Seaplane Base","city":"Angoon","country":"United States","latitude":"57.503611","longitude":"-134.585","altitude":"0","timezone":"-9","dst":"A"},"AGP":{"iata":"AGP","icao":"LEMG","name":"Malaga","city":"Malaga","country":"Spain","latitude":"36.6749","longitude":"-4.499106","altitude":"52","timezone":"1","dst":"E"},"AGQ":{"iata":"AGQ","icao":"LGAG","name":"Agrinion","city":"Agrinion","country":"Greece","latitude":"38.602022","longitude":"21.351208","altitude":"154","timezone":"2","dst":"E"},"AGR":{"iata":"AGR","icao":"VIAG","name":"Agra","city":"Agra","country":"India","latitude":"27.155831","longitude":"77.960892","altitude":"551","timezone":"5.5","dst":"N"},"AGS":{"iata":"AGS","icao":"KAGS","name":"Augusta Rgnl At Bush Fld","city":"Bush Field","country":"United States","latitude":"33.369944","longitude":"-81.9645","altitude":"144","timezone":"-5","dst":"A"},"AGT":{"iata":"AGT","icao":"SGES","name":"Ciudad del Este","city":"Ciudad del Este","country":"Paraguay","latitude":"-25.4555","longitude":"-54.843592","altitude":"846","timezone":"-4","dst":"S"},"AGU":{"iata":"AGU","icao":"MMAS","name":"Jesus Teran Intl","city":"Aguascalientes","country":"Mexico","latitude":"21.705558","longitude":"-102.317858","altitude":"6112","timezone":"-6","dst":"S"},"AGV":{"iata":"AGV","icao":"SVAC","name":"Oswaldo Guevara Mujica","city":"Acarigua","country":"Venezuela","latitude":"9.553422","longitude":"-69.237536","altitude":"741","timezone":"-4.5","dst":"U"},"AGX":{"iata":"AGX","icao":"VOAT","name":"Agatti","city":"Agatti Island","country":"India","latitude":"10.823656","longitude":"72.176042","altitude":"14","timezone":"5.5","dst":"N"},"AGZ":{"iata":"AGZ","icao":"FAAG","name":"Aggeneys","city":"Aggeneys","country":"South Africa","latitude":"-29.281767","longitude":"18.813869","altitude":"2648","timezone":"2","dst":"U"},"AHB":{"iata":"AHB","icao":"OEAB","name":"Abha","city":"Abha","country":"Saudi Arabia","latitude":"18.240367","longitude":"42.656625","altitude":"6858","timezone":"3","dst":"U"},"AHE":{"iata":"AHE","icao":"NTHE","name":"Ahe Airport","city":"Ahe","country":"French Polynesia","latitude":"-14.4281","longitude":"-146.257","altitude":"11","timezone":"-10","dst":"U"},"AHN":{"iata":"AHN","icao":"KAHN","name":"Athens Ben Epps Airport","city":"Athens","country":"United States","latitude":"33.9486","longitude":"-83.3263","altitude":"808","timezone":"-5","dst":"A"},"AHO":{"iata":"AHO","icao":"LIEA","name":"Alghero","city":"Alghero","country":"Italy","latitude":"40.632133","longitude":"8.290772","altitude":"87","timezone":"1","dst":"E"},"AHS":{"iata":"AHS","icao":"MHAH","name":"Ahuas Airport","city":"Ahuas","country":"Honduras","latitude":"15.4722","longitude":"-84.3522","altitude":"98","timezone":"-6","dst":"U"},"AHU":{"iata":"AHU","icao":"GMTA","name":"Cherif El Idrissi","city":"Al Hociema","country":"Morocco","latitude":"35.177103","longitude":"-3.839525","altitude":"95","timezone":"0","dst":"N"},"AIA":{"iata":"AIA","icao":"KAIA","name":"Alliance Municipal Airport","city":"Alliance","country":"United States","latitude":"42.053333","longitude":"-102.803889","altitude":"3931","timezone":"-7","dst":"A"},"AIC":{"iata":"AIC","icao":"\\N","name":"Airok Airport","city":"Airok","country":"Marshall Islands","latitude":"7.1","longitude":"171.233333","altitude":"10","timezone":"12","dst":"U"},"AIE":{"iata":"AIE","icao":"\\N","name":"Aiome","city":"Aiome","country":"Papua New Guinea","latitude":"-5.8","longitude":"144.44","altitude":"350","timezone":"10","dst":"U"},"AIK":{"iata":"AIK","icao":"KAIK","name":"Municipal Airport","city":"Aiken","country":"United States","latitude":"33.6493889","longitude":"-81.6850278","altitude":"529","timezone":"-5","dst":"A"},"AIM":{"iata":"AIM","icao":"","name":"Ailuk Airport","city":"Ailuk Island","country":"Marshall Islands","latitude":"10.2168","longitude":"169.983","altitude":"0","timezone":"12","dst":"U"},"AIN":{"iata":"AIN","icao":"PAWI","name":"Wainwright Airport","city":"Wainwright","country":"United States","latitude":"70.638056","longitude":"-159.994722","altitude":"41","timezone":"-9","dst":"A"},"AIS":{"iata":"AIS","icao":"NGTR","name":"Arorae Island Airport","city":"Arorae","country":"Kiribati","latitude":"-2.633333","longitude":"179.816667","altitude":"6","timezone":"10","dst":"U"},"AIT":{"iata":"AIT","icao":"NCAI","name":"Aitutaki","city":"Aitutaki","country":"Cook Islands","latitude":"-18.830922","longitude":"-159.764233","altitude":"14","timezone":"-10","dst":"U"},"AIU":{"iata":"AIU","icao":"NCAT","name":"Atiu Island Airport","city":"Atiu Island","country":"Cook Islands","latitude":"-19.9678","longitude":"-158.119","altitude":"36","timezone":"-10","dst":"U"},"AIZ":{"iata":"AIZ","icao":"KAIZ","name":"Lee C Fine Memorial Airport","city":"Kaiser Lake Ozark","country":"United States","latitude":"38.096035","longitude":"-92.5494875","altitude":"869","timezone":"-6","dst":"A"},"AJA":{"iata":"AJA","icao":"LFKJ","name":"Campo Dell Oro","city":"Ajaccio","country":"France","latitude":"41.923637","longitude":"8.802917","altitude":"18","timezone":"1","dst":"E"},"AJF":{"iata":"AJF","icao":"OESK","name":"Al-Jawf Domestic Airport","city":"Al-Jawf","country":"Saudi Arabia","latitude":"29.785133","longitude":"40.100006","altitude":"2261","timezone":"3","dst":"U"},"AJI":{"iata":"AJI","icao":"LTCO","name":"Agri Airport","city":"Agri","country":"Turkey","latitude":"39.6546","longitude":"43.0271","altitude":"5462","timezone":"2","dst":"E"},"AJL":{"iata":"AJL","icao":"VEAZ","name":"Aizawl","city":"Aizwal","country":"India","latitude":"23.746603","longitude":"92.802767","altitude":"1001","timezone":"5.5","dst":"N"},"AJN":{"iata":"AJN","icao":"FMCV","name":"Ouani","city":"Anjouan","country":"Comoros","latitude":"-12.131667","longitude":"44.430279","altitude":"62","timezone":"3","dst":"U"},"AJR":{"iata":"AJR","icao":"ESNX","name":"Arvidsjaur","city":"Arvidsjaur","country":"Sweden","latitude":"65.590278","longitude":"19.281944","altitude":"1245","timezone":"1","dst":"E"},"AJU":{"iata":"AJU","icao":"SBAR","name":"Santa Maria","city":"Aracaju","country":"Brazil","latitude":"-10.984","longitude":"-37.070333","altitude":"23","timezone":"-3","dst":"S"},"AJY":{"iata":"AJY","icao":"DRZA","name":"Manu Dayak","city":"Agadez","country":"Niger","latitude":"16.965997","longitude":"8.000114","altitude":"1657","timezone":"1","dst":"N"},"AKA":{"iata":"AKA","icao":"ZLAK","name":"Ankang Airport","city":"Ankang","country":"China","latitude":"32.7081","longitude":"108.931","altitude":"0","timezone":"8","dst":"U"},"AKB":{"iata":"AKB","icao":"PAAK","name":"Atka Airport","city":"Atka","country":"United States","latitude":"52.220278","longitude":"-174.206389","altitude":"56","timezone":"-9","dst":"A"},"AKC":{"iata":"AKC","icao":"KAKR","name":"Akron Fulton Intl","city":"Akron","country":"United States","latitude":"41.0375","longitude":"-81.466917","altitude":"1067","timezone":"-5","dst":"A"},"AKD":{"iata":"AKD","icao":"VAAK","name":"Akola","city":"Akola","country":"India","latitude":"20.699006","longitude":"77.058628","altitude":"999","timezone":"5.5","dst":"N"},"AKF":{"iata":"AKF","icao":"HLKF","name":"Kufra","city":"Kufra","country":"Libya","latitude":"24.178728","longitude":"23.313958","altitude":"1367","timezone":"2","dst":"N"},"AKI":{"iata":"AKI","icao":"PFAK","name":"Akiak Airport","city":"Akiak","country":"United States","latitude":"60.902778","longitude":"-161.230556","altitude":"30","timezone":"-9","dst":"A"},"AKJ":{"iata":"AKJ","icao":"RJEC","name":"Asahikawa","city":"Asahikawa","country":"Japan","latitude":"43.670833","longitude":"142.4475","altitude":"721","timezone":"9","dst":"U"},"AKK":{"iata":"AKK","icao":"PAKH","name":"Akhiok Airport","city":"Akhiok","country":"United States","latitude":"56.938611","longitude":"-154.1825","altitude":"44","timezone":"-9","dst":"A"},"AKL":{"iata":"AKL","icao":"NZAA","name":"Auckland Intl","city":"Auckland","country":"New Zealand","latitude":"-37.008056","longitude":"174.791667","altitude":"23","timezone":"12","dst":"Z"},"AKN":{"iata":"AKN","icao":"PAKN","name":"King Salmon","city":"King Salmon","country":"United States","latitude":"58.676778","longitude":"-156.649278","altitude":"68","timezone":"-9","dst":"A"},"AKP":{"iata":"AKP","icao":"PAKP","name":"Anaktuvuk Pass Airport","city":"Anaktuvuk Pass","country":"United States","latitude":"68.1336","longitude":"-151.743","altitude":"2103","timezone":"-9","dst":"A"},"AKR":{"iata":"AKR","icao":"DNAK","name":"Akure","city":"Akure","country":"Nigeria","latitude":"7.246739","longitude":"5.301008","altitude":"1100","timezone":"1","dst":"N"},"AKS":{"iata":"AKS","icao":"AGGA","name":"Auki Airport","city":"Auki","country":"Solomon Islands","latitude":"-8.70257","longitude":"160.682","altitude":"5","timezone":"11","dst":"U"},"AKT":{"iata":"AKT","icao":"LCRA","name":"Akrotiri","city":"Akrotiri","country":"Cyprus","latitude":"34.590416","longitude":"32.987861","altitude":"76","timezone":"0","dst":"E"},"AKU":{"iata":"AKU","icao":"ZWAK","name":"Aksu Airport","city":"Aksu","country":"China","latitude":"41.2625","longitude":"80.2917","altitude":"0","timezone":"8","dst":"U"},"AKV":{"iata":"AKV","icao":"CYKO","name":"Akulivik Airport","city":"Akulivik","country":"Canada","latitude":"60.8186","longitude":"-78.1486","altitude":"75","timezone":"-5","dst":"A"},"AKX":{"iata":"AKX","icao":"UATT","name":"Aktyubinsk","city":"Aktyubinsk","country":"Kazakhstan","latitude":"50.245833","longitude":"57.206667","altitude":"738","timezone":"5","dst":"U"},"AKY":{"iata":"AKY","icao":"VYSW","name":"Sittwe","city":"Sittwe","country":"Burma","latitude":"20.132708","longitude":"92.872628","altitude":"27","timezone":"6.5","dst":"U"},"ALA":{"iata":"ALA","icao":"UAAA","name":"Almaty","city":"Alma-ata","country":"Kazakhstan","latitude":"43.352072","longitude":"77.040508","altitude":"2234","timezone":"6","dst":"U"},"ALB":{"iata":"ALB","icao":"KALB","name":"Albany Intl","city":"Albany","country":"United States","latitude":"42.748267","longitude":"-73.801692","altitude":"285","timezone":"-5","dst":"A"},"ALC":{"iata":"ALC","icao":"LEAL","name":"Alicante","city":"Alicante","country":"Spain","latitude":"38.282169","longitude":"-0.558156","altitude":"142","timezone":"1","dst":"E"},"ALF":{"iata":"ALF","icao":"ENAT","name":"Alta","city":"Alta","country":"Norway","latitude":"69.976111","longitude":"23.371667","altitude":"9","timezone":"1","dst":"E"},"ALG":{"iata":"ALG","icao":"DAAG","name":"Houari Boumediene","city":"Algier","country":"Algeria","latitude":"36.691014","longitude":"3.215408","altitude":"82","timezone":"1","dst":"N"},"ALH":{"iata":"ALH","icao":"YABA","name":"Albany Airport","city":"Albany","country":"Australia","latitude":"-34.9433","longitude":"117.809","altitude":"233","timezone":"8","dst":"O"},"ALI":{"iata":"ALI","icao":"KALI","name":"Alice Intl","city":"Alice","country":"United States","latitude":"27.740889","longitude":"-98.026944","altitude":"178","timezone":"-6","dst":"A"},"ALJ":{"iata":"ALJ","icao":"FAAB","name":"Alexander Bay","city":"Alexander Bay","country":"South Africa","latitude":"-28.575001","longitude":"16.533333","altitude":"98","timezone":"2","dst":"U"},"ALL":{"iata":"ALL","icao":"LIMG","name":"Albenga","city":"Albenga","country":"Italy","latitude":"44.050608","longitude":"8.127428","altitude":"148","timezone":"1","dst":"E"},"ALM":{"iata":"ALM","icao":"KALM","name":"Alamogordo White Sands Regional Airport","city":"Alamogordo","country":"United States","latitude":"32.8399","longitude":"-105.991","altitude":"4200","timezone":"-7","dst":"A"},"ALO":{"iata":"ALO","icao":"KALO","name":"Waterloo Regional Airport","city":"Waterloo","country":"United States","latitude":"42.5571","longitude":"-92.4003","altitude":"873","timezone":"-6","dst":"A"},"ALP":{"iata":"ALP","icao":"OSAP","name":"Aleppo Intl","city":"Aleppo","country":"Syria","latitude":"36.180675","longitude":"37.224358","altitude":"1276","timezone":"2","dst":"E"},"ALR":{"iata":"ALR","icao":"NZLX","name":"Alexandra","city":"Alexandra","country":"New Zealand","latitude":"-45.211666","longitude":"169.373333","altitude":"752","timezone":"12","dst":"Z"},"ALS":{"iata":"ALS","icao":"KALS","name":"San Luis Valley Regional Airport","city":"Alamosa","country":"United States","latitude":"37.435","longitude":"-105.866667","altitude":"7539","timezone":"-7","dst":"A"},"ALU":{"iata":"ALU","icao":"HCMA","name":"Alula Airport","city":"Alula","country":"Somalia","latitude":"11.95","longitude":"50.733","altitude":"6","timezone":"3","dst":"U"},"ALW":{"iata":"ALW","icao":"KALW","name":"Walla Walla Regional Airport","city":"Walla Walla","country":"United States","latitude":"46.0949","longitude":"-118.288","altitude":"1191","timezone":"-8","dst":"A"},"ALX":{"iata":"ALX","icao":"ALX_","name":"Alexandria","city":"Alexandria","country":"United States","latitude":"38.806346","longitude":"-77.0621","altitude":"1","timezone":"-5","dst":"A"},"ALY":{"iata":"ALY","icao":"HEAX","name":"Alexandria Intl","city":"Alexandria","country":"Egypt","latitude":"31.183903","longitude":"29.948889","altitude":"-6","timezone":"2","dst":"U"},"ALZ":{"iata":"ALZ","icao":"\\N","name":"Alitak Seaplane Base","city":"Lazy Bay","country":"United States","latitude":"56.899444","longitude":"-154.247778","altitude":"0","timezone":"-9","dst":"A"},"AMA":{"iata":"AMA","icao":"KAMA","name":"Rick Husband Amarillo Intl","city":"Amarillo","country":"United States","latitude":"35.219369","longitude":"-101.705931","altitude":"3607","timezone":"-6","dst":"A"},"AMB":{"iata":"AMB","icao":"FMNE","name":"Ambilobe","city":"Ambilobe","country":"Madagascar","latitude":"-13.188431","longitude":"48.987978","altitude":"72","timezone":"3","dst":"U"},"AMC":{"iata":"AMC","icao":"FTTN","name":"Am Timan Airport","city":"Am Timan","country":"Chad","latitude":"11.034","longitude":"20.274","altitude":"1421","timezone":"1","dst":"U"},"AMD":{"iata":"AMD","icao":"VAAH","name":"Ahmedabad","city":"Ahmedabad","country":"India","latitude":"23.077242","longitude":"72.63465","altitude":"189","timezone":"5.5","dst":"N"},"AMH":{"iata":"AMH","icao":"HAAM","name":"Arba Minch","city":"Arba Minch","country":"Ethiopia","latitude":"6.039389","longitude":"37.590453","altitude":"3895","timezone":"3","dst":"U"},"AMI":{"iata":"AMI","icao":"WADA","name":"Selaparang","city":"Mataram","country":"Indonesia","latitude":"-8.560708","longitude":"116.094656","altitude":"52","timezone":"8","dst":"N"},"AMM":{"iata":"AMM","icao":"OJAI","name":"Queen Alia Intl","city":"Amman","country":"Jordan","latitude":"31.722556","longitude":"35.993214","altitude":"2395","timezone":"2","dst":"E"},"AMQ":{"iata":"AMQ","icao":"WAPP","name":"Pattimura","city":"Ambon","country":"Indonesia","latitude":"-3.710264","longitude":"128.089136","altitude":"33","timezone":"9","dst":"N"},"AMS":{"iata":"AMS","icao":"EHAM","name":"Schiphol","city":"Amsterdam","country":"Netherlands","latitude":"52.308613","longitude":"4.763889","altitude":"-11","timezone":"1","dst":"E"},"AMV":{"iata":"AMV","icao":"ULDD","name":"Amderma Airport","city":"Amderma","country":"Russia","latitude":"69.7633","longitude":"61.5564","altitude":"13","timezone":"4","dst":"N"},"AMY":{"iata":"AMY","icao":"\\N","name":"Ambatomainty Airport","city":"Ambatomainty","country":"Madagascar","latitude":"-17.1667","longitude":"47.1833","altitude":"500","timezone":"3","dst":"U"},"AMZ":{"iata":"AMZ","icao":"NZAR","name":"Ardmore","city":"Ardmore","country":"New Zealand","latitude":"-37.029722","longitude":"174.973333","altitude":"111","timezone":"12","dst":"Z"},"ANB":{"iata":"ANB","icao":"KANB","name":"Anniston Metro","city":"Anniston","country":"United States","latitude":"33.588167","longitude":"-85.858111","altitude":"612","timezone":"-6","dst":"A"},"ANC":{"iata":"ANC","icao":"PANC","name":"Ted Stevens Anchorage Intl","city":"Anchorage","country":"United States","latitude":"61.174361","longitude":"-149.996361","altitude":"152","timezone":"-9","dst":"A"},"AND":{"iata":"AND","icao":"KAND","name":"Anderson Rgnl","city":"Andersen","country":"United States","latitude":"34.494583","longitude":"-82.709389","altitude":"782","timezone":"-5","dst":"A"},"ANE":{"iata":"ANE","icao":"LFJR","name":"Angers-Loire Airport","city":"Angers/Marc├⌐","country":"France","latitude":"47.5603","longitude":"-0.312222","altitude":"194","timezone":"1","dst":"E"},"ANF":{"iata":"ANF","icao":"SCFA","name":"Cerro Moreno Intl","city":"Antofagasta","country":"Chile","latitude":"-23.444478","longitude":"-70.4451","altitude":"455","timezone":"-4","dst":"S"},"ANG":{"iata":"ANG","icao":"LFBU","name":"Brie Champniers","city":"Angouleme","country":"France","latitude":"45.729247","longitude":"0.221456","altitude":"436","timezone":"1","dst":"E"},"ANI":{"iata":"ANI","icao":"PANI","name":"Aniak Airport","city":"Aniak","country":"United States","latitude":"61.5816","longitude":"-159.543","altitude":"88","timezone":"-9","dst":"A"},"ANK":{"iata":"ANK","icao":"LTAD","name":"Etimesgut","city":"Ankara","country":"Turkey","latitude":"39.949831","longitude":"32.688622","altitude":"2653","timezone":"2","dst":"E"},"ANM":{"iata":"ANM","icao":"FMNH","name":"Antsirabato","city":"Antalaha","country":"Madagascar","latitude":"-14.999411","longitude":"50.320233","altitude":"20","timezone":"3","dst":"U"},"ANN":{"iata":"ANN","icao":"PANT","name":"Annette Island","city":"Annette Island","country":"United States","latitude":"55.042436","longitude":"-131.572233","altitude":"119","timezone":"-9","dst":"A"},"ANP":{"iata":"ANP","icao":"KANP","name":"Lee Airport","city":"Annapolis","country":"United States","latitude":"38.942778","longitude":"-76.568333","altitude":"34","timezone":"-5","dst":"A"},"ANQ":{"iata":"ANQ","icao":"KANQ","name":"Tri-State Steuben County Airport","city":"Angola","country":"United States","latitude":"41.6396983","longitude":"-85.0834933","altitude":"995","timezone":"-5","dst":"A"},"ANR":{"iata":"ANR","icao":"EBAW","name":"Deurne","city":"Antwerp","country":"Belgium","latitude":"51.189444","longitude":"4.460278","altitude":"39","timezone":"1","dst":"E"},"ANS":{"iata":"ANS","icao":"SPHY","name":"Andahuaylas","city":"Andahuaylas","country":"Peru","latitude":"-13.706408","longitude":"-73.350378","altitude":"11300","timezone":"-5","dst":"U"},"ANU":{"iata":"ANU","icao":"TAPA","name":"V C Bird Intl","city":"Antigua","country":"Antigua and Barbuda","latitude":"17.136749","longitude":"-61.792667","altitude":"62","timezone":"-4","dst":"U"},"ANV":{"iata":"ANV","icao":"PANV","name":"Anvik Airport","city":"Anvik","country":"United States","latitude":"62.6467","longitude":"-160.191","altitude":"309","timezone":"-9","dst":"A"},"ANX":{"iata":"ANX","icao":"ENAN","name":"Andenes","city":"Andoya","country":"Norway","latitude":"69.2925","longitude":"16.144167","altitude":"43","timezone":"1","dst":"E"},"AOC":{"iata":"AOC","icao":"EDAC","name":"Altenburg Nobitz","city":"Altenburg","country":"Germany","latitude":"50.981817","longitude":"12.506361","altitude":"640","timezone":"1","dst":"E"},"AOE":{"iata":"AOE","icao":"LTBY","name":"Anadolu Airport","city":"Eskissehir","country":"Turkey","latitude":"39.809858","longitude":"30.519378","altitude":"2588","timezone":"2","dst":"E"},"AOH":{"iata":"AOH","icao":"KAOH","name":"Lima Allen County Airport","city":"Lima","country":"United States","latitude":"40.707478","longitude":"-84.0270781","altitude":"975","timezone":"-5","dst":"A"},"AOI":{"iata":"AOI","icao":"LIPY","name":"Falconara","city":"Ancona","country":"Italy","latitude":"43.616389","longitude":"13.362222","altitude":"10","timezone":"1","dst":"E"},"AOJ":{"iata":"AOJ","icao":"RJSA","name":"Aomori","city":"Aomori","country":"Japan","latitude":"40.734722","longitude":"140.690833","altitude":"664","timezone":"9","dst":"U"},"AOK":{"iata":"AOK","icao":"LGKP","name":"Karpathos","city":"Karpathos","country":"Greece","latitude":"35.421408","longitude":"27.146008","altitude":"66","timezone":"2","dst":"E"},"AOL":{"iata":"AOL","icao":"SARL","name":"Paso De Los Libres","city":"Paso De Los Libres","country":"Argentina","latitude":"-29.689425","longitude":"-57.152078","altitude":"230","timezone":"-3","dst":"N"},"AOO":{"iata":"AOO","icao":"KAOO","name":"Altoona Blair Co","city":"Altoona","country":"United States","latitude":"40.296372","longitude":"-78.320022","altitude":"1504","timezone":"-5","dst":"A"},"AOR":{"iata":"AOR","icao":"WMKA","name":"Sultan Abdul Halim","city":"Alor Setar","country":"Malaysia","latitude":"6.189667","longitude":"100.398183","altitude":"15","timezone":"8","dst":"N"},"AOS":{"iata":"AOS","icao":"\\N","name":"Amook Bay Seaplane Base","city":"Amook Bay","country":"United States","latitude":"57.471389","longitude":"-153.815278","altitude":"0","timezone":"-9","dst":"A"},"AOT":{"iata":"AOT","icao":"LIMW","name":"Aosta Airport","city":"Aosta","country":"Italy","latitude":"45.738456","longitude":"7.368719","altitude":"1791","timezone":"1","dst":"E"},"APA":{"iata":"APA","icao":"KAPA","name":"Centennial","city":"Denver","country":"United States","latitude":"39.570129","longitude":"-104.849294","altitude":"5883","timezone":"-7","dst":"A"},"APC":{"iata":"APC","icao":"KAPC","name":"Napa County Airport","city":"Napa","country":"United States","latitude":"38.2131944","longitude":"-122.2806944","altitude":"35","timezone":"-8","dst":"A"},"APF":{"iata":"APF","icao":"KAPF","name":"Naples Muni","city":"Naples","country":"United States","latitude":"26.152619","longitude":"-81.775294","altitude":"8","timezone":"-5","dst":"A"},"APG":{"iata":"APG","icao":"KAPG","name":"Phillips Aaf","city":"Aberdeen","country":"United States","latitude":"39.466219","longitude":"-76.168808","altitude":"57","timezone":"-5","dst":"A"},"APK":{"iata":"APK","icao":"NTGD","name":"Apataki Airport","city":"Apataki","country":"French Polynesia","latitude":"-15.5736","longitude":"-146.415","altitude":"8","timezone":"-10","dst":"U"},"APL":{"iata":"APL","icao":"FQNP","name":"Nampula","city":"Nampula","country":"Mozambique","latitude":"-15.105611","longitude":"39.2818","altitude":"1444","timezone":"2","dst":"U"},"APN":{"iata":"APN","icao":"KAPN","name":"Alpena County Regional Airport","city":"Alpena","country":"United States","latitude":"45.0781","longitude":"-83.5603","altitude":"689","timezone":"-5","dst":"A"},"APO":{"iata":"APO","icao":"","name":"Apartad├│ Airport","city":"Apartad├│","country":"Colombia","latitude":"7.033","longitude":"-77.2","altitude":"0","timezone":"-5","dst":"U"},"APW":{"iata":"APW","icao":"NSFA","name":"Faleolo Intl","city":"Faleolo","country":"Samoa","latitude":"-13.829969","longitude":"-172.008336","altitude":"58","timezone":"13","dst":"U"},"APZ":{"iata":"APZ","icao":"SAHZ","name":"ZAPALA","city":"ZAPALA","country":"Argentina","latitude":"-38.9755","longitude":"-70.113581","altitude":"3330","timezone":"-3","dst":"N"},"AQA":{"iata":"AQA","icao":"SBAQ","name":"Araraquara","city":"Araracuara","country":"Brazil","latitude":"-21.812","longitude":"-48.133028","altitude":"2334","timezone":"-3","dst":"S"},"AQB":{"iata":"AQB","icao":"MGQC","name":"Santa Cruz des Quiche Airport","city":"Santa Cruz des Quiche","country":"Guatemala","latitude":"15.0122004","longitude":"-91.1505966","altitude":"6631","timezone":"-6","dst":"S"},"AQC":{"iata":"AQC","icao":"PAQC","name":"Klawock Seaplane Base","city":"Klawock","country":"United States","latitude":"55.554658","longitude":"-133.101693","altitude":"0","timezone":"-9","dst":"A"},"AQG":{"iata":"AQG","icao":"ZSAQ","name":"Anqing Airport","city":"Anqing","country":"China","latitude":"30.5822","longitude":"117.0502","altitude":"0","timezone":"8","dst":"N"},"AQI":{"iata":"AQI","icao":"OEPA","name":"Qaisumah","city":"Hafr Al-batin","country":"Saudi Arabia","latitude":"28.335192","longitude":"46.125069","altitude":"1174","timezone":"3","dst":"U"},"AQJ":{"iata":"AQJ","icao":"OJAQ","name":"Aqaba King Hussein Intl","city":"Aqaba","country":"Jordan","latitude":"29.611619","longitude":"35.018067","altitude":"175","timezone":"2","dst":"E"},"AQP":{"iata":"AQP","icao":"SPQU","name":"Rodriguez Ballon","city":"Arequipa","country":"Peru","latitude":"-16.341072","longitude":"-71.583083","altitude":"8405","timezone":"-5","dst":"U"},"ARA":{"iata":"ARA","icao":"KARA","name":"Acadiana Rgnl","city":"Louisiana","country":"United States","latitude":"30.037758","longitude":"-91.883896","altitude":"24","timezone":"-6","dst":"A"},"ARB":{"iata":"ARB","icao":"KARB","name":"Ann Arbor Municipal Airport","city":"Ann Arbor","country":"United States","latitude":"42.132274","longitude":"-83.444418","altitude":"839","timezone":"-5","dst":"A"},"ARC":{"iata":"ARC","icao":"PARC","name":"Arctic Village Airport","city":"Arctic Village","country":"United States","latitude":"68.1147","longitude":"-145.579","altitude":"2092","timezone":"-9","dst":"A"},"ARD":{"iata":"ARD","icao":"WATM","name":"Mali Airport","city":"Alor Island","country":"Indonesia","latitude":"-8.13234","longitude":"124.597","altitude":"10","timezone":"8","dst":"N"},"ARE":{"iata":"ARE","icao":"TJAB","name":"Antonio Juarbe Pol Airport","city":"Arecibo","country":"Puerto Rico","latitude":"18.451111","longitude":"-66.675556","altitude":"23","timezone":"-4","dst":"N"},"ARH":{"iata":"ARH","icao":"ULAA","name":"Talagi","city":"Arkhangelsk","country":"Russia","latitude":"64.360281","longitude":"40.430167","altitude":"19","timezone":"4","dst":"N"},"ARI":{"iata":"ARI","icao":"SCAR","name":"Chacalluta","city":"Arica","country":"Chile","latitude":"-18.348531","longitude":"-70.338742","altitude":"167","timezone":"-4","dst":"S"},"ARK":{"iata":"ARK","icao":"HTAR","name":"Arusha","city":"Arusha","country":"Tanzania","latitude":"-3.367794","longitude":"36.633333","altitude":"4550","timezone":"3","dst":"U"},"ARM":{"iata":"ARM","icao":"YARM","name":"Armidale","city":"Armidale","country":"Australia","latitude":"-30.528056","longitude":"151.617222","altitude":"3556","timezone":"10","dst":"O"},"ARN":{"iata":"ARN","icao":"ESSA","name":"Arlanda","city":"Stockholm","country":"Sweden","latitude":"59.651944","longitude":"17.918611","altitude":"137","timezone":"1","dst":"E"},"ARR":{"iata":"ARR","icao":"SAVR","name":"Alto Rio Senguer Airport","city":"Alto Rio Senguer","country":"Argentina","latitude":"-45.016667","longitude":"-70.816667","altitude":"2145","timezone":"-3","dst":"N"},"ART":{"iata":"ART","icao":"KART","name":"Watertown Intl","city":"Watertown","country":"United States","latitude":"43.991922","longitude":"-76.021739","altitude":"325","timezone":"-5","dst":"A"},"ARU":{"iata":"ARU","icao":"SBAU","name":"Aracatuba","city":"Aracatuba","country":"Brazil","latitude":"-21.141342","longitude":"-50.424722","altitude":"1361","timezone":"-3","dst":"S"},"ARV":{"iata":"ARV","icao":"KARV","name":"Lakeland","city":"Minocqua - Woodruff","country":"United States","latitude":"45.927778","longitude":"-89.730833","altitude":"1629","timezone":"-6","dst":"A"},"ARW":{"iata":"ARW","icao":"LRAR","name":"Arad","city":"Arad","country":"Romania","latitude":"46.17655","longitude":"21.262022","altitude":"352","timezone":"2","dst":"E"},"ASA":{"iata":"ASA","icao":"HHSB","name":"Assab Intl","city":"Assab","country":"Eritrea","latitude":"13.071783","longitude":"42.645006","altitude":"46","timezone":"3","dst":"U"},"ASB":{"iata":"ASB","icao":"UTAA","name":"Ashgabat","city":"Ashkhabad","country":"Turkmenistan","latitude":"37.986814","longitude":"58.360967","altitude":"692","timezone":"5","dst":"U"},"ASD":{"iata":"ASD","icao":"MYAF","name":"Fresh Creek","city":"Andros Town","country":"Bahamas","latitude":"24.698283","longitude":"-77.795611","altitude":"5","timezone":"-5","dst":"U"},"ASE":{"iata":"ASE","icao":"KASE","name":"Aspen Pitkin County Sardy Field","city":"Aspen","country":"United States","latitude":"39.2232","longitude":"-106.869","altitude":"7820","timezone":"-7","dst":"A"},"ASF":{"iata":"ASF","icao":"URWA","name":"Astrakhan","city":"Astrakhan","country":"Russia","latitude":"46.283333","longitude":"48.006278","altitude":"-65","timezone":"4","dst":"N"},"ASH":{"iata":"ASH","icao":"KASH","name":"Boire Field Airport","city":"Nashua","country":"United States","latitude":"42.78175","longitude":"-71.5147778","altitude":"199","timezone":"-5","dst":"A"},"ASI":{"iata":"ASI","icao":"\\N","name":"Wideawake Field","city":"Georgetown Acension Island Santa Helena","country":"United Kingdom","latitude":"-7.969597","longitude":"-14.393664","altitude":"278","timezone":"0","dst":"U"},"ASJ":{"iata":"ASJ","icao":"RJKA","name":"Amami","city":"Amami","country":"Japan","latitude":"28.430633","longitude":"129.712542","altitude":"27","timezone":"9","dst":"U"},"ASK":{"iata":"ASK","icao":"DIYO","name":"Yamoussoukro","city":"Yamoussoukro","country":"Cote d'Ivoire","latitude":"6.903167","longitude":"-5.365581","altitude":"699","timezone":"0","dst":"N"},"ASM":{"iata":"ASM","icao":"HHAS","name":"Asmara Intl","city":"Asmara","country":"Eritrea","latitude":"15.291853","longitude":"38.910667","altitude":"7661","timezone":"3","dst":"U"},"ASO":{"iata":"ASO","icao":"HASO","name":"Asosa","city":"Asosa","country":"Ethiopia","latitude":"10.01855","longitude":"34.586253","altitude":"5120","timezone":"3","dst":"U"},"ASP":{"iata":"ASP","icao":"YBAS","name":"Alice Springs","city":"Alice Springs","country":"Australia","latitude":"-23.806667","longitude":"133.902222","altitude":"1789","timezone":"9.5","dst":"N"},"ASR":{"iata":"ASR","icao":"LTAU","name":"Erkilet","city":"Kayseri","country":"Turkey","latitude":"38.770386","longitude":"35.495428","altitude":"3463","timezone":"2","dst":"E"},"AST":{"iata":"AST","icao":"KAST","name":"Astoria Regional Airport","city":"Astoria","country":"United States","latitude":"46.157972","longitude":"-123.878694","altitude":"15","timezone":"-8","dst":"A"},"ASU":{"iata":"ASU","icao":"SGAS","name":"Silvio Pettirossi Intl","city":"Asuncion","country":"Paraguay","latitude":"-25.23985","longitude":"-57.519133","altitude":"292","timezone":"-4","dst":"S"},"ASV":{"iata":"ASV","icao":"HKAM","name":"Amboseli Airport","city":"Amboseli National Park","country":"Kenya","latitude":"-2.64505","longitude":"37.2531","altitude":"3755","timezone":"3","dst":"U"},"ASW":{"iata":"ASW","icao":"HESN","name":"Aswan Intl","city":"Aswan","country":"Egypt","latitude":"23.964356","longitude":"32.819975","altitude":"662","timezone":"2","dst":"U"},"ATA":{"iata":"ATA","icao":"SPHZ","name":"Comandante Fap German Arias Graziani","city":"Anta","country":"Peru","latitude":"-9.347444","longitude":"-77.598392","altitude":"9097","timezone":"-5","dst":"U"},"ATB":{"iata":"ATB","icao":"HSAT","name":"Atbara Airport","city":"Atbara","country":"Sudan","latitude":"17.7","longitude":"33.967","altitude":"1181","timezone":"3","dst":"U"},"ATC":{"iata":"ATC","icao":"MYCA","name":"Arthurs Town Airport","city":"Arthur's Town","country":"Bahamas","latitude":"24.629417","longitude":"-75.673775","altitude":"18","timezone":"-5","dst":"U"},"ATD":{"iata":"ATD","icao":"AGAT","name":"Uru Harbour Airport","city":"Atoifi","country":"Solomon Islands","latitude":"-8.87333","longitude":"161.011","altitude":"0","timezone":"11","dst":"U"},"ATF":{"iata":"ATF","icao":"SEAM","name":"Chachoan","city":"Ambato","country":"Ecuador","latitude":"-1.212067","longitude":"-78.574636","altitude":"8502","timezone":"-5","dst":"U"},"ATH":{"iata":"ATH","icao":"LGAV","name":"Eleftherios Venizelos Intl","city":"Athens","country":"Greece","latitude":"37.936358","longitude":"23.944467","altitude":"308","timezone":"2","dst":"E"},"ATJ":{"iata":"ATJ","icao":"FMME","name":"Antsirabe","city":"Antsirabe","country":"Madagascar","latitude":"-19.836944","longitude":"47.065278","altitude":"4913","timezone":"3","dst":"U"},"ATK":{"iata":"ATK","icao":"PATQ","name":"Atqasuk Edward Burnell Sr Memorial Airport","city":"Atqasuk","country":"United States","latitude":"70.4673","longitude":"-157.436","altitude":"96","timezone":"-9","dst":"A"},"ATL":{"iata":"ATL","icao":"KATL","name":"Hartsfield Jackson Atlanta Intl","city":"Atlanta","country":"United States","latitude":"33.636719","longitude":"-84.428067","altitude":"1026","timezone":"-5","dst":"A"},"ATM":{"iata":"ATM","icao":"SBHT","name":"Altamira","city":"Altamira","country":"Brazil","latitude":"-3.253906","longitude":"-52.253978","altitude":"368","timezone":"-4","dst":"S"},"ATP":{"iata":"ATP","icao":"","name":"Tadji Airport","city":"Aitape","country":"Papua New Guinea","latitude":"-3.18985","longitude":"142.43","altitude":"48","timezone":"10","dst":"U"},"ATQ":{"iata":"ATQ","icao":"VIAR","name":"Amritsar","city":"Amritsar","country":"India","latitude":"31.709594","longitude":"74.797264","altitude":"756","timezone":"5.5","dst":"N"},"ATR":{"iata":"ATR","icao":"GQPA","name":"Atar","city":"Atar","country":"Mauritania","latitude":"20.506828","longitude":"-13.043194","altitude":"758","timezone":"0","dst":"N"},"ATT":{"iata":"ATT","icao":"KATT","name":"Camp Mabry Austin City","city":"Austin TX","country":"United States","latitude":"30.31666","longitude":"-97.7666","altitude":"0","timezone":"-6","dst":"A"},"ATW":{"iata":"ATW","icao":"KATW","name":"Appleton","city":"Appleton","country":"United States","latitude":"44.257526","longitude":"-88.507576","altitude":"680","timezone":"-6","dst":"A"},"ATY":{"iata":"ATY","icao":"KATY","name":"Watertown Regional Airport","city":"Watertown","country":"United States","latitude":"44.914","longitude":"-97.1547","altitude":"1748","timezone":"-6","dst":"A"},"ATZ":{"iata":"ATZ","icao":"HEAT","name":"Asyut International Airport","city":"Asyut","country":"Egypt","latitude":"27.046508","longitude":"31.011983","altitude":"772","timezone":"2","dst":"U"},"AUA":{"iata":"AUA","icao":"TNCA","name":"Reina Beatrix Intl","city":"Oranjestad","country":"Aruba","latitude":"12.501389","longitude":"-70.015221","altitude":"60","timezone":"-4","dst":"U"},"AUB":{"iata":"AUB","icao":"AUGS","name":"Augsburg HBF","city":"Augsburg","country":"Germany","latitude":"48.3655","longitude":"10.886","altitude":"1200","timezone":"1","dst":"E"},"AUC":{"iata":"AUC","icao":"SKUC","name":"Santiago Perez","city":"Arauca","country":"Colombia","latitude":"7.068881","longitude":"-70.736925","altitude":"420","timezone":"-5","dst":"U"},"AUF":{"iata":"AUF","icao":"LFLA","name":"Branches","city":"Auxerre","country":"France","latitude":"47.850193","longitude":"3.497111","altitude":"523","timezone":"1","dst":"E"},"AUG":{"iata":"AUG","icao":"KAUG","name":"Augusta State","city":"Augusta","country":"United States","latitude":"44.320647","longitude":"-69.797317","altitude":"352","timezone":"-5","dst":"A"},"AUH":{"iata":"AUH","icao":"OMAA","name":"Abu Dhabi Intl","city":"Abu Dhabi","country":"United Arab Emirates","latitude":"24.432972","longitude":"54.651138","altitude":"88","timezone":"4","dst":"U"},"AUJ":{"iata":"AUJ","icao":"\\N","name":"Ambunti","city":"Ambunti","country":"Papua New Guinea","latitude":"-4.15","longitude":"142.51","altitude":"160","timezone":"10","dst":"U"},"AUK":{"iata":"AUK","icao":"PAUK","name":"Alakanuk Airport","city":"Alakanuk","country":"United States","latitude":"62.68","longitude":"-164.66","altitude":"10","timezone":"-9","dst":"A"},"AUL":{"iata":"AUL","icao":"","name":"Aur Island Airport","city":"Aur Atoll","country":"Marshall Islands","latitude":"8.14528","longitude":"171.173","altitude":"0","timezone":"12","dst":"U"},"AUO":{"iata":"AUO","icao":"KAUO","name":"Auburn University Regional","city":"Auburn","country":"United States","latitude":"32.3691","longitude":"-85.2604","altitude":"777","timezone":"-6","dst":"A"},"AUQ":{"iata":"AUQ","icao":"NTMN","name":"Hiva Oa-Atuona Airport","city":"Hiva-oa","country":"French Polynesia","latitude":"-9.768794","longitude":"-139.011256","altitude":"1481","timezone":"-9.5","dst":"U"},"AUR":{"iata":"AUR","icao":"LFLW","name":"Aurillac","city":"Aurillac","country":"France","latitude":"44.891388","longitude":"2.421944","altitude":"2096","timezone":"1","dst":"E"},"AUS":{"iata":"AUS","icao":"KAUS","name":"Austin Bergstrom Intl","city":"Austin","country":"United States","latitude":"30.194528","longitude":"-97.669889","altitude":"542","timezone":"-6","dst":"A"},"AUU":{"iata":"AUU","icao":"YAUR","name":"Aurukun Airport","city":"Aurukun","country":"Australia","latitude":"-13.3539","longitude":"141.721","altitude":"31","timezone":"10","dst":"O"},"AUW":{"iata":"AUW","icao":"\\N","name":"Wausau Downtown Airport","city":"Wausau","country":"United States","latitude":"44.9262845","longitude":"-89.6270018","altitude":"1201","timezone":"-6","dst":"U"},"AUX":{"iata":"AUX","icao":"SWGN","name":"Araguaina Airport","city":"Araguaina","country":"Brazil","latitude":"-7.228333","longitude":"-48.240833","altitude":"771","timezone":"-3","dst":"S"},"AUY":{"iata":"AUY","icao":"NVVA","name":"Anelghowhat Airport","city":"Anelghowhat","country":"Vanuatu","latitude":"-20.2492","longitude":"169.771","altitude":"7","timezone":"11","dst":"U"},"AVB":{"iata":"AVB","icao":"LIPA","name":"Aviano Ab","city":"Aviano","country":"Italy","latitude":"46.031889","longitude":"12.596472","altitude":"410","timezone":"1","dst":"E"},"AVI":{"iata":"AVI","icao":"MUCA","name":"Maximo Gomez","city":"Ciego De Avila","country":"Cuba","latitude":"22.027053","longitude":"-78.789617","altitude":"335","timezone":"-5","dst":"U"},"AVK":{"iata":"AVK","icao":"ZMAH","name":"Arvaikheer Airport","city":"Arvaikheer","country":"Mongolia","latitude":"46.2503","longitude":"102.802","altitude":"5932","timezone":"8","dst":"U"},"AVL":{"iata":"AVL","icao":"KAVL","name":"Asheville Regional Airport","city":"Asheville","country":"United States","latitude":"35.436194","longitude":"-82.541806","altitude":"2165","timezone":"-5","dst":"A"},"AVN":{"iata":"AVN","icao":"LFMV","name":"Caumont","city":"Avignon","country":"France","latitude":"43.9073","longitude":"4.901831","altitude":"124","timezone":"1","dst":"E"},"AVO":{"iata":"AVO","icao":"KAVO","name":"Executive","city":"Avon Park","country":"United States","latitude":"27.591389","longitude":"-81.528889","altitude":"160","timezone":"-5","dst":"A"},"AVP":{"iata":"AVP","icao":"KAVP","name":"Wilkes Barre Scranton Intl","city":"Scranton","country":"United States","latitude":"41.338478","longitude":"-75.723403","altitude":"962","timezone":"-5","dst":"A"},"AVV":{"iata":"AVV","icao":"YMAV","name":"Avalon","city":"Avalon","country":"Australia","latitude":"-38.039444","longitude":"144.469444","altitude":"35","timezone":"10","dst":"O"},"AVW":{"iata":"AVW","icao":"KAVQ","name":"Marana Regional","city":"Tucson","country":"United States","latitude":"32.409556","longitude":"-111.218388","altitude":"2031","timezone":"-7","dst":"U"},"AVX":{"iata":"AVX","icao":"KAVX","name":"Avalon","city":"Catalina Island","country":"United States","latitude":"33.405","longitude":"-118.415833","altitude":"1602","timezone":"-8","dst":"A"},"AWA":{"iata":"AWA","icao":"HALA","name":"Awasa Airport","city":"Awasa","country":"Ethiopia","latitude":"7.067","longitude":"38.5","altitude":"5149","timezone":"3","dst":"U"},"AWB":{"iata":"AWB","icao":"\\N","name":"Awaba Airport","city":"Awaba","country":"Papua New Guinea","latitude":"-8.014","longitude":"142.75","altitude":"0","timezone":"10","dst":"U"},"AWD":{"iata":"AWD","icao":"NVVB","name":"Aniwa Airport","city":"Aniwa","country":"Vanuatu","latitude":"-19.24","longitude":"169.605","altitude":"69","timezone":"11","dst":"U"},"AWK":{"iata":"AWK","icao":"PWAK","name":"Wake Island Afld","city":"Wake island","country":"Wake Island","latitude":"19.282067","longitude":"166.636444","altitude":"14","timezone":"12","dst":"U"},"AWZ":{"iata":"AWZ","icao":"OIAW","name":"Ahwaz","city":"Ahwaz","country":"Iran","latitude":"31.337431","longitude":"48.76195","altitude":"66","timezone":"3.5","dst":"E"},"AXA":{"iata":"AXA","icao":"TQPF","name":"Wallblake","city":"The Valley","country":"Anguilla","latitude":"18.204834","longitude":"-63.055084","altitude":"127","timezone":"-4","dst":"U"},"AXD":{"iata":"AXD","icao":"LGAL","name":"Dimokritos","city":"Alexandroupolis","country":"Greece","latitude":"40.855869","longitude":"25.956264","altitude":"24","timezone":"2","dst":"E"},"AXJ":{"iata":"AXJ","icao":"RJDA","name":"Amakusa Airfield","city":"Amakusa","country":"Japan","latitude":"32.482222","longitude":"130.158889","altitude":"340","timezone":"9","dst":"U"},"AXK":{"iata":"AXK","icao":"OYAT","name":"Ataq","city":"Ataq","country":"Yemen","latitude":"14.551322","longitude":"46.826183","altitude":"3735","timezone":"3","dst":"U"},"AXM":{"iata":"AXM","icao":"SKAR","name":"El Eden","city":"Armenia","country":"Colombia","latitude":"4.452775","longitude":"-75.766447","altitude":"3990","timezone":"-5","dst":"U"},"AXP":{"iata":"AXP","icao":"MYAP","name":"Spring Point","city":"Spring Point","country":"Bahamas","latitude":"22.441828","longitude":"-73.970858","altitude":"11","timezone":"-5","dst":"U"},"AXR":{"iata":"AXR","icao":"NTGU","name":"Arutua","city":"Arutua","country":"French Polynesia","latitude":"-15.248289","longitude":"-146.616708","altitude":"9","timezone":"-10","dst":"U"},"AXT":{"iata":"AXT","icao":"RJSK","name":"Akita","city":"Akita","country":"Japan","latitude":"39.615556","longitude":"140.218611","altitude":"313","timezone":"9","dst":"U"},"AXU":{"iata":"AXU","icao":"HAAX","name":"Axum","city":"Axum","country":"Ethiopia","latitude":"14.14675","longitude":"38.772833","altitude":"6915","timezone":"3","dst":"U"},"AYK":{"iata":"AYK","icao":"UAUR","name":"Arkalyk Airport","city":"Arkalyk","country":"Kazakhstan","latitude":"50.2395","longitude":"66.941","altitude":"1152","timezone":"6","dst":"U"},"AYP":{"iata":"AYP","icao":"SPHO","name":"Coronel Fap Alfredo Mendivil Duarte","city":"Ayacucho","country":"Peru","latitude":"-13.154819","longitude":"-74.204417","altitude":"8917","timezone":"-5","dst":"U"},"AYQ":{"iata":"AYQ","icao":"YAYE","name":"Ayers Rock","city":"Uluru","country":"Australia","latitude":"-25.186111","longitude":"130.975556","altitude":"1626","timezone":"9.5","dst":"N"},"AYT":{"iata":"AYT","icao":"LTAI","name":"Antalya","city":"Antalya","country":"Turkey","latitude":"36.898731","longitude":"30.800461","altitude":"177","timezone":"2","dst":"E"},"AZ3":{"iata":"AZ3","icao":"OASA","name":"Sharona","city":"Sharona","country":"Afghanistan","latitude":"33.1277215","longitude":"68.8369847","altitude":"7400","timezone":"4.5","dst":"N"},"AZA":{"iata":"AZA","icao":"KIWA","name":"Phoenix-Mesa Gateway","city":"Mesa","country":"United States","latitude":"33.307833","longitude":"-111.655","altitude":"1382","timezone":"-7","dst":"N"},"AZD":{"iata":"AZD","icao":"OIYY","name":"Yazd Shahid Sadooghi","city":"Yazd","country":"Iran","latitude":"31.904908","longitude":"54.276503","altitude":"4054","timezone":"3.5","dst":"E"},"AZI":{"iata":"AZI","icao":"OMAD","name":"Bateen","city":"Abu Dhabi","country":"United Arab Emirates","latitude":"24.428333","longitude":"54.458084","altitude":"16","timezone":"4","dst":"U"},"AZN":{"iata":"AZN","icao":"UTKA","name":"Andizhan Airport","city":"Andizhan","country":"Uzbekistan","latitude":"40.7277","longitude":"72.294","altitude":"1515","timezone":"5","dst":"U"},"AZO":{"iata":"AZO","icao":"KAZO","name":"Kalamazoo","city":"Kalamazoo","country":"United States","latitude":"42.234875","longitude":"-85.552058","altitude":"874","timezone":"-5","dst":"A"},"AZR":{"iata":"AZR","icao":"DAUA","name":"Touat Cheikh Sidi Mohamed Belkebir","city":"Adrar","country":"Algeria","latitude":"27.837589","longitude":"-0.186414","altitude":"919","timezone":"1","dst":"N"},"AZS":{"iata":"AZS","icao":"MDCY","name":"Saman├í El Catey International Airport","city":"Samana","country":"Dominican Republic","latitude":"19.267","longitude":"-69.742","altitude":"30","timezone":"-4","dst":"U"},"BAB":{"iata":"BAB","icao":"KBAB","name":"Beale Afb","city":"Marysville","country":"United States","latitude":"39.136089","longitude":"-121.436567","altitude":"113","timezone":"-8","dst":"A"},"BAD":{"iata":"BAD","icao":"KBAD","name":"Barksdale Afb","city":"Shreveport","country":"United States","latitude":"32.50182","longitude":"-93.662674","altitude":"166","timezone":"-6","dst":"A"},"BAF":{"iata":"BAF","icao":"KBAF","name":"Barnes Municipal","city":"Westfield","country":"United States","latitude":"42.1579472","longitude":"-72.715875","altitude":"270","timezone":"-5","dst":"A"},"BAG":{"iata":"BAG","icao":"RPUB","name":"Baguio","city":"Baguio","country":"Philippines","latitude":"16.375103","longitude":"120.619636","altitude":"4251","timezone":"8","dst":"N"},"BAH":{"iata":"BAH","icao":"OBBI","name":"Bahrain Intl","city":"Bahrain","country":"Bahrain","latitude":"26.270834","longitude":"50.63361","altitude":"6","timezone":"3","dst":"U"},"BAK":{"iata":"BAK","icao":"\\N","name":"Heydar Aliyev","city":"Baku","country":"Azerbaijan","latitude":"40.4675","longitude":"50.046667","altitude":"10","timezone":"4","dst":"E"},"BAL":{"iata":"BAL","icao":"LTCJ","name":"Batman","city":"Batman","country":"Turkey","latitude":"37.928969","longitude":"41.116583","altitude":"1822","timezone":"2","dst":"E"},"BAM":{"iata":"BAM","icao":"BAMB","name":"Bamberg BF","city":"Bamberg","country":"Germany","latitude":"49.911","longitude":"10.9","altitude":"800","timezone":"1","dst":"E"},"BAQ":{"iata":"BAQ","icao":"SKBQ","name":"Ernesto Cortissoz","city":"Barranquilla","country":"Colombia","latitude":"10.889589","longitude":"-74.780819","altitude":"98","timezone":"-5","dst":"U"},"BAS":{"iata":"BAS","icao":"AGGE","name":"Ballalae Airport","city":"Ballalae","country":"Solomon Islands","latitude":"-6.967","longitude":"155.883","altitude":"5","timezone":"11","dst":"U"},"BAU":{"iata":"BAU","icao":"SBBU","name":"Bauru","city":"Bauru","country":"Brazil","latitude":"-22.345042","longitude":"-49.0538","altitude":"2025","timezone":"-3","dst":"S"},"BAV":{"iata":"BAV","icao":"ZBOW","name":"Baotou Airport","city":"Baotou","country":"China","latitude":"40.56","longitude":"109.997","altitude":"3321","timezone":"8","dst":"U"},"BAX":{"iata":"BAX","icao":"UNBB","name":"Barnaul","city":"Barnaul","country":"Russia","latitude":"53.363775","longitude":"83.538533","altitude":"838","timezone":"7","dst":"N"},"BAY":{"iata":"BAY","icao":"LRBM","name":"Tautii Magheraus","city":"Baia Mare","country":"Romania","latitude":"47.658389","longitude":"23.470022","altitude":"605","timezone":"2","dst":"E"},"BAZ":{"iata":"BAZ","icao":"SWBC","name":"Barcelos Airport","city":"Barcelos","country":"Brazil","latitude":"-0.975","longitude":"-62.923889","altitude":"500","timezone":"-4","dst":"S"},"BBA":{"iata":"BBA","icao":"SCBA","name":"Balmaceda","city":"Balmaceda","country":"Chile","latitude":"-45.916058","longitude":"-71.689475","altitude":"1722","timezone":"-4","dst":"S"},"BBG":{"iata":"BBG","icao":"NGTU","name":"Butaritari Atoll Airport","city":"Butaritari","country":"Kiribati","latitude":"3.086521","longitude":"172.811465","altitude":"5","timezone":"12","dst":"U"},"BBH":{"iata":"BBH","icao":"EDBH","name":"Barth","city":"Barth","country":"Germany","latitude":"54.33754","longitude":"12.699705","altitude":"23","timezone":"1","dst":"E"},"BBI":{"iata":"BBI","icao":"VEBS","name":"Bhubaneshwar","city":"Bhubaneswar","country":"India","latitude":"20.244364","longitude":"85.817781","altitude":"138","timezone":"5.5","dst":"N"},"BBJ":{"iata":"BBJ","icao":"EDAB","name":"Bautzen","city":"Bautzen","country":"Germany","latitude":"51.193531","longitude":"14.519747","altitude":"568","timezone":"1","dst":"E"},"BBK":{"iata":"BBK","icao":"FBKE","name":"Kasane","city":"Kasane","country":"Botswana","latitude":"-17.832875","longitude":"25.1624","altitude":"3289","timezone":"2","dst":"U"},"BBM":{"iata":"BBM","icao":"VDBG","name":"Battambang Airport","city":"Battambang","country":"Cambodia","latitude":"13.0956","longitude":"103.224","altitude":"59","timezone":"7","dst":"U"},"BBN":{"iata":"BBN","icao":"WBGZ","name":"Bario Airport","city":"Bario","country":"Malaysia","latitude":"3.73389","longitude":"115.479","altitude":"3350","timezone":"8","dst":"N"},"BBO":{"iata":"BBO","icao":"HCMI","name":"Berbera","city":"Berbera","country":"Somalia","latitude":"10.389167","longitude":"44.941106","altitude":"30","timezone":"3","dst":"U"},"BBP":{"iata":"BBP","icao":"EGHJ","name":"Bembridge","city":"Bembridge","country":"United Kingdom","latitude":"50.677778","longitude":"-1.109444","altitude":"53","timezone":"0","dst":"E"},"BBQ":{"iata":"BBQ","icao":"TAPH","name":"Codrington Airport","city":"Codrington","country":"Antigua and Barbuda","latitude":"17.6358","longitude":"-61.8286","altitude":"15","timezone":"-4","dst":"U"},"BBR":{"iata":"BBR","icao":"TFFB","name":"Baillif Airport","city":"Basse Terre","country":"Guadeloupe","latitude":"16.0133","longitude":"-61.7422","altitude":"59","timezone":"-4","dst":"U"},"BBS":{"iata":"BBS","icao":"EGLK","name":"Blackbushe","city":"Blackbushe","country":"United Kingdom","latitude":"51.323889","longitude":"-0.8475","altitude":"325","timezone":"0","dst":"E"},"BBT":{"iata":"BBT","icao":"FEFT","name":"Berberati","city":"Berberati","country":"Central African Republic","latitude":"4.221583","longitude":"15.786369","altitude":"1929","timezone":"1","dst":"N"},"BBU":{"iata":"BBU","icao":"LRBS","name":"Aurel Vlaicu","city":"Bucharest","country":"Romania","latitude":"44.503194","longitude":"26.102111","altitude":"297","timezone":"2","dst":"E"},"BBX":{"iata":"BBX","icao":"KLOM","name":"Wings Field","city":"Philadelphia","country":"United States","latitude":"40.1375","longitude":"-75.265","altitude":"302","timezone":"-5","dst":"A"},"BCA":{"iata":"BCA","icao":"MUBA","name":"Gustavo Rizo","city":"Baracoa Playa","country":"Cuba","latitude":"20.365317","longitude":"-74.506206","altitude":"26","timezone":"-5","dst":"U"},"BCD":{"iata":"BCD","icao":"RPVB","name":"Bacolod","city":"Bacolod","country":"Philippines","latitude":"10.642511","longitude":"122.929617","altitude":"25","timezone":"8","dst":"N"},"BCE":{"iata":"BCE","icao":"KBCE","name":"Bryce Canyon","city":"Bryce Canyon","country":"United States","latitude":"37.706444","longitude":"-112.145806","altitude":"7590","timezone":"-7","dst":"A"},"BCI":{"iata":"BCI","icao":"YBAR","name":"Barcaldine Airport","city":"Barcaldine","country":"Australia","latitude":"-23.5653","longitude":"145.307","altitude":"878","timezone":"10","dst":"O"},"BCL":{"iata":"BCL","icao":"MRBC","name":"Barra del Colorado Airport","city":"Pococi","country":"Costa Rica","latitude":"10.768736","longitude":"-83.585614","altitude":"3","timezone":"-6","dst":"U"},"BCM":{"iata":"BCM","icao":"LRBC","name":"Bacau","city":"Bacau","country":"Romania","latitude":"46.521946","longitude":"26.910278","altitude":"607","timezone":"2","dst":"E"},"BCN":{"iata":"BCN","icao":"LEBL","name":"Barcelona","city":"Barcelona","country":"Spain","latitude":"41.297078","longitude":"2.078464","altitude":"12","timezone":"1","dst":"E"},"BCO":{"iata":"BCO","icao":"HABC","name":"Baco Airport","city":"Baco","country":"Ethiopia","latitude":"5.78287","longitude":"36.562","altitude":"0","timezone":"3","dst":"U"},"BCT":{"iata":"BCT","icao":"KBCT","name":"Boca Raton","city":"Boca Raton","country":"United States","latitude":"26.3785","longitude":"-80.107694","altitude":"13","timezone":"-5","dst":"A"},"BCV":{"iata":"BCV","icao":"\\N","name":"Hector Silva Airstrip","city":"Belmopan","country":"Belize","latitude":"17.269444","longitude":"-88.776111","altitude":"50","timezone":"-6","dst":"U"},"BCW":{"iata":"BCW","icao":"\\N","name":"Benguera Island Airport","city":"Benguera Island","country":"Mozambique","latitude":"-21.849167","longitude":"35.436944","altitude":"50","timezone":"2","dst":"U"},"BDA":{"iata":"BDA","icao":"TXKF","name":"Bermuda Intl","city":"Bermuda","country":"Bermuda","latitude":"32.364042","longitude":"-64.678703","altitude":"12","timezone":"-4","dst":"A"},"BDB":{"iata":"BDB","icao":"YBUD","name":"Bundaberg","city":"Bundaberg","country":"Australia","latitude":"-24.903889","longitude":"152.318611","altitude":"107","timezone":"10","dst":"O"},"BDD":{"iata":"BDD","icao":"YBAU","name":"Badu Island Airport","city":"Badu Island","country":"Australia","latitude":"-10.15","longitude":"141.175","altitude":"14","timezone":"9","dst":"O"},"BDE":{"iata":"BDE","icao":"KBDE","name":"Baudette Intl","city":"Baudette","country":"United States","latitude":"48.728444","longitude":"-94.612222","altitude":"1086","timezone":"-6","dst":"A"},"BDH":{"iata":"BDH","icao":"OIBL","name":"Bandar Lengeh","city":"Bandar Lengeh","country":"Iran","latitude":"26.532","longitude":"54.824847","altitude":"67","timezone":"3.5","dst":"E"},"BDI":{"iata":"BDI","icao":"FSSB","name":"Bird Island Airport","city":"Bird Island","country":"Seychelles","latitude":"-3.721389","longitude":"55.208611","altitude":"10","timezone":"4","dst":"U"},"BDJ":{"iata":"BDJ","icao":"WAOO","name":"Syamsudin Noor","city":"Banjarmasin","country":"Indonesia","latitude":"-3.442356","longitude":"114.762553","altitude":"66","timezone":"8","dst":"N"},"BDL":{"iata":"BDL","icao":"KBDL","name":"Bradley Intl","city":"Windsor Locks","country":"United States","latitude":"41.938889","longitude":"-72.683222","altitude":"173","timezone":"-5","dst":"A"},"BDM":{"iata":"BDM","icao":"LTBG","name":"Bandirma","city":"Bandirma","country":"Turkey","latitude":"40.317972","longitude":"27.977694","altitude":"170","timezone":"2","dst":"E"},"BDN":{"iata":"BDN","icao":"OPTH","name":"Talhar","city":"Talhar","country":"Pakistan","latitude":"24.841519","longitude":"68.838408","altitude":"28","timezone":"5","dst":"N"},"BDO":{"iata":"BDO","icao":"WICC","name":"Husein Sastranegara","city":"Bandung","country":"Indonesia","latitude":"-6.900625","longitude":"107.576294","altitude":"2436","timezone":"7","dst":"N"},"BDP":{"iata":"BDP","icao":"VNCG","name":"Chandragadhi Airport","city":"Chandragarhi","country":"Nepal","latitude":"26.570822","longitude":"88.079578","altitude":"300","timezone":"5.75","dst":"N"},"BDQ":{"iata":"BDQ","icao":"VABO","name":"Vadodara","city":"Baroda","country":"India","latitude":"22.336164","longitude":"73.226289","altitude":"129","timezone":"5.5","dst":"N"},"BDR":{"iata":"BDR","icao":"KBDR","name":"Igor I Sikorsky Mem","city":"Stratford","country":"United States","latitude":"41.163472","longitude":"-73.126167","altitude":"9","timezone":"-5","dst":"A"},"BDS":{"iata":"BDS","icao":"LIBR","name":"Casale","city":"Brindisi","country":"Italy","latitude":"40.657633","longitude":"17.947033","altitude":"47","timezone":"1","dst":"E"},"BDT":{"iata":"BDT","icao":"FZFD","name":"Gbadolite","city":"Gbadolite","country":"Congo (Kinshasa)","latitude":"4.253206","longitude":"20.975283","altitude":"1509","timezone":"1","dst":"N"},"BDU":{"iata":"BDU","icao":"ENDU","name":"Bardufoss","city":"Bardufoss","country":"Norway","latitude":"69.055758","longitude":"18.540356","altitude":"252","timezone":"1","dst":"E"},"BE2":{"iata":"BE2","icao":"\\N","name":"Port of Belfast","city":"Belfast","country":"United Kingdom","latitude":"54.6178","longitude":"-5.9017","altitude":"0","timezone":"0","dst":"E"},"BEB":{"iata":"BEB","icao":"EGPL","name":"Benbecula","city":"Benbecula","country":"United Kingdom","latitude":"57.481111","longitude":"-7.362778","altitude":"19","timezone":"0","dst":"E"},"BEC":{"iata":"BEC","icao":"KBEC","name":"Beech Factory Airport","city":"Wichita","country":"United States","latitude":"37.6939167","longitude":"-97.2149167","altitude":"1409","timezone":"-6","dst":"A"},"BED":{"iata":"BED","icao":"KBED","name":"Laurence G Hanscom Fld","city":"Bedford","country":"United States","latitude":"42.469953","longitude":"-71.289031","altitude":"133","timezone":"-5","dst":"A"},"BEF":{"iata":"BEF","icao":"MNBL","name":"Bluefields","city":"Bluefields","country":"Nicaragua","latitude":"11.990961","longitude":"-83.774086","altitude":"41","timezone":"-6","dst":"U"},"BEG":{"iata":"BEG","icao":"LYBE","name":"Beograd","city":"Belgrade","country":"Serbia","latitude":"44.818444","longitude":"20.309139","altitude":"335","timezone":"1","dst":"E"},"BEH":{"iata":"BEH","icao":"\\N","name":"Southwest Michigan Regional Airport","city":"Benton Harbor","country":"United States","latitude":"42.1285833","longitude":"-86.4285","altitude":"643","timezone":"-5","dst":"A"},"BEI":{"iata":"BEI","icao":"HABE","name":"Beica Airport","city":"Beica","country":"Ethiopia","latitude":"9.38639","longitude":"34.5219","altitude":"5410","timezone":"3","dst":"U"},"BEJ":{"iata":"BEJ","icao":"WALK","name":"Barau(Kalimaru) Airport","city":"Tanjung Redep-Borneo Island","country":"Indonesia","latitude":"2.155497","longitude":"117.432256","altitude":"59","timezone":"8","dst":"N"},"BEL":{"iata":"BEL","icao":"SBBE","name":"Val De Cans Intl","city":"Belem","country":"Brazil","latitude":"-1.37925","longitude":"-48.476292","altitude":"54","timezone":"-4","dst":"S"},"BEN":{"iata":"BEN","icao":"HLLB","name":"Benina","city":"Benghazi","country":"Libya","latitude":"32.096786","longitude":"20.269472","altitude":"433","timezone":"2","dst":"N"},"BEO":{"iata":"BEO","icao":"YPEC","name":"Belmont Airport","city":"Lake Macquarie","country":"Australia","latitude":"-33.066667","longitude":"151.648333","altitude":"5","timezone":"10","dst":"O"},"BEP":{"iata":"BEP","icao":"VOBI","name":"Bellary","city":"Bellary","country":"India","latitude":"15.162783","longitude":"76.882775","altitude":"30","timezone":"5.5","dst":"N"},"BEQ":{"iata":"BEQ","icao":"EGXH","name":"Honington","city":"Honington","country":"United Kingdom","latitude":"52.342611","longitude":"0.772939","altitude":"174","timezone":"0","dst":"E"},"BER":{"iata":"BER","icao":"EDDB","name":"Berlin Brandenburg Willy Brandt","city":"Berlin","country":"Germany","latitude":"52.366667","longitude":"13.503333","altitude":"154","timezone":"1","dst":"E"},"BES":{"iata":"BES","icao":"LFRB","name":"Guipavas","city":"Brest","country":"France","latitude":"48.447911","longitude":"-4.418539","altitude":"325","timezone":"1","dst":"E"},"BET":{"iata":"BET","icao":"PABE","name":"Bethel","city":"Bethel","country":"United States","latitude":"60.779778","longitude":"-161.838","altitude":"121","timezone":"-9","dst":"A"},"BEU":{"iata":"BEU","icao":"YBIE","name":"Bedourie Airport","city":"Bedourie","country":"Australia","latitude":"-24.3461","longitude":"139.46","altitude":"300","timezone":"10","dst":"O"},"BEV":{"iata":"BEV","icao":"LLBS","name":"Teyman","city":"Beer-sheba","country":"Israel","latitude":"31.287003","longitude":"34.722953","altitude":"656","timezone":"2","dst":"U"},"BEW":{"iata":"BEW","icao":"FQBR","name":"Beira","city":"Beira","country":"Mozambique","latitude":"-19.796419","longitude":"34.907556","altitude":"33","timezone":"2","dst":"U"},"BEY":{"iata":"BEY","icao":"OLBA","name":"Rafic Hariri Intl","city":"Beirut","country":"Lebanon","latitude":"33.820931","longitude":"35.488389","altitude":"87","timezone":"2","dst":"E"},"BEZ":{"iata":"BEZ","icao":"NGBR","name":"Beru Island Airport","city":"Beru Island","country":"Kiribati","latitude":"-1.254722","longitude":"176.007222","altitude":"10","timezone":"10","dst":"U"},"BFD":{"iata":"BFD","icao":"KBFD","name":"Bradford Regional Airport","city":"Bradford","country":"United States","latitude":"41.8031","longitude":"-78.6401","altitude":"2143","timezone":"-5","dst":"A"},"BFF":{"iata":"BFF","icao":"KBFF","name":"Western Nebraska Regional Airport","city":"Scottsbluff","country":"United States","latitude":"41.874","longitude":"-103.596","altitude":"3967","timezone":"-7","dst":"A"},"BFH":{"iata":"BFH","icao":"SBBI","name":"Bacacheri","city":"Curitiba","country":"Brazil","latitude":"-25.405078","longitude":"-49.232036","altitude":"3057","timezone":"-3","dst":"S"},"BFI":{"iata":"BFI","icao":"KBFI","name":"Boeing Fld King Co Intl","city":"Seattle","country":"United States","latitude":"47.53","longitude":"-122.301947","altitude":"21","timezone":"-8","dst":"A"},"BFJ":{"iata":"BFJ","icao":"\\N","name":"Bijie Feixiong Airport","city":"Bijie","country":"China","latitude":"27.253","longitude":"105.426","altitude":"5250","timezone":"8","dst":"N"},"BFL":{"iata":"BFL","icao":"KBFL","name":"Meadows Fld","city":"Bakersfield","country":"United States","latitude":"35.433598","longitude":"-119.05677","altitude":"507","timezone":"-8","dst":"A"},"BFM":{"iata":"BFM","icao":"KBFM","name":"Mobile Downtown","city":"Mobile","country":"United States","latitude":"30.626783","longitude":"-88.068092","altitude":"26","timezone":"-6","dst":"A"},"BFN":{"iata":"BFN","icao":"FABL","name":"Bloemfontein Intl","city":"Bloemfontein","country":"South Africa","latitude":"-29.092722","longitude":"26.302444","altitude":"4458","timezone":"2","dst":"U"},"BFO":{"iata":"BFO","icao":"FVCZ","name":"Buffalo Range","city":"Chiredzi","country":"Zimbabwe","latitude":"-21.008083","longitude":"31.57855","altitude":"1421","timezone":"2","dst":"U"},"BFP":{"iata":"BFP","icao":"KBFP","name":"Beaver Falls","city":"Beaver Falls","country":"United States","latitude":"40.7724722","longitude":"-80.3914444","altitude":"1253","timezone":"-5","dst":"A"},"BFQ":{"iata":"BFQ","icao":"","name":"Bahia Pi├▒a Airport","city":"Bahia Pi├▒a","country":"Panama","latitude":"7.583","longitude":"-78.2","altitude":"14","timezone":"-5","dst":"U"},"BFS":{"iata":"BFS","icao":"EGAA","name":"Belfast Intl","city":"Belfast","country":"United Kingdom","latitude":"54.6575","longitude":"-6.215833","altitude":"268","timezone":"0","dst":"E"},"BFT":{"iata":"BFT","icao":"KBFT","name":"BFT County Airport","city":"Beauford","country":"United States","latitude":"32.41083","longitude":"-80.635","altitude":"500","timezone":"-5","dst":"A"},"BFV":{"iata":"BFV","icao":"VTUO","name":"Buri Ram","city":"Buri Ram","country":"Thailand","latitude":"15.229539","longitude":"103.253231","altitude":"590","timezone":"7","dst":"U"},"BFX":{"iata":"BFX","icao":"FKKU","name":"Bafoussam","city":"Bafoussam","country":"Cameroon","latitude":"5.536919","longitude":"10.354583","altitude":"4347","timezone":"1","dst":"N"},"BGA":{"iata":"BGA","icao":"SKBG","name":"Palonegro","city":"Bucaramanga","country":"Colombia","latitude":"7.1265","longitude":"-73.184778","altitude":"3897","timezone":"-5","dst":"U"},"BGC":{"iata":"BGC","icao":"LPBG","name":"Braganca","city":"Braganca","country":"Portugal","latitude":"41.8578","longitude":"-6.707125","altitude":"2241","timezone":"0","dst":"E"},"BGE":{"iata":"BGE","icao":"KBGE","name":"Decatur County Industrial Air Park","city":"Bainbridge","country":"United States","latitude":"30.9715981","longitude":"-84.6369278","altitude":"141","timezone":"-5","dst":"A"},"BGF":{"iata":"BGF","icao":"FEFF","name":"Bangui M Poko","city":"Bangui","country":"Central African Republic","latitude":"4.398475","longitude":"18.518786","altitude":"1208","timezone":"1","dst":"N"},"BGG":{"iata":"BGG","icao":"LTCU","name":"Bingol","city":"Bingol","country":"Turkey","latitude":"38.86111","longitude":"40.5925","altitude":"3490","timezone":"2","dst":"E"},"BGI":{"iata":"BGI","icao":"TBPB","name":"Grantley Adams Intl","city":"Bridgetown","country":"Barbados","latitude":"13.074603","longitude":"-59.492456","altitude":"169","timezone":"-4","dst":"U"},"BGK":{"iata":"BGK","icao":"\\N","name":"Big Creek Airport","city":"Big Creek","country":"Belize","latitude":"16.516667","longitude":"-88.416667","altitude":"16","timezone":"-6","dst":"U"},"BGM":{"iata":"BGM","icao":"KBGM","name":"Greater Binghamton Edwin A Link Fld","city":"Binghamton","country":"United States","latitude":"42.208689","longitude":"-75.979839","altitude":"1636","timezone":"-5","dst":"A"},"BGO":{"iata":"BGO","icao":"ENBR","name":"Flesland","city":"Bergen","country":"Norway","latitude":"60.293386","longitude":"5.218142","altitude":"170","timezone":"1","dst":"E"},"BGR":{"iata":"BGR","icao":"KBGR","name":"Bangor Intl","city":"Bangor","country":"United States","latitude":"44.807444","longitude":"-68.828139","altitude":"192","timezone":"-5","dst":"A"},"BGS":{"iata":"BGS","icao":"\\N","name":"Gesundbrunnen","city":"Berlin","country":"Germany","latitude":"52.548611","longitude":"13.389444","altitude":"150","timezone":"1","dst":"E"},"BGW":{"iata":"BGW","icao":"ORBI","name":"Baghdad International Airport","city":"Baghdad","country":"Iraq","latitude":"33.262539","longitude":"44.234578","altitude":"114","timezone":"3","dst":"U"},"BGX":{"iata":"BGX","icao":"SBBG","name":"Comandante Gustavo Kraemer","city":"Bage","country":"Brazil","latitude":"-31.390528","longitude":"-54.112244","altitude":"600","timezone":"-3","dst":"S"},"BGY":{"iata":"BGY","icao":"LIME","name":"Bergamo Orio Al Serio","city":"Bergamo","country":"Italy","latitude":"45.673889","longitude":"9.704166","altitude":"782","timezone":"1","dst":"E"},"BHB":{"iata":"BHB","icao":"KBHB","name":"Hancock County - Bar Harbor","city":"Bar Harbor","country":"United States","latitude":"44.4497689","longitude":"-68.3615653","altitude":"83","timezone":"-5","dst":"A"},"BHD":{"iata":"BHD","icao":"EGAC","name":"Belfast City","city":"Belfast","country":"United Kingdom","latitude":"54.618056","longitude":"-5.8725","altitude":"15","timezone":"0","dst":"E"},"BHE":{"iata":"BHE","icao":"NZWB","name":"Woodbourne","city":"Woodbourne","country":"New Zealand","latitude":"-41.518333","longitude":"173.870278","altitude":"109","timezone":"12","dst":"Z"},"BHF":{"iata":"BHF","icao":"\\N","name":"Ostbahnhof","city":"Berlin","country":"Germany","latitude":"52.51","longitude":"13.434722","altitude":"135","timezone":"1","dst":"E"},